{
"type": "FeatureCollection",
"name": "points",
"features": [
{ "type": "Feature", "properties": { "ID": "1", "Name": "Aragon Ballroom", "Address": "1106 W Lawrence Ave, Chicago, IL 60640", "City": "Chicago", "Country": "USA", "Website": "http://www.aragonballroom.org/", "Type": "venue", "Type_Public": "venue", "Food": "no", "Description": "Check website for details. Metal bands only play once and a while.", "Review": "", "field_12": "", "field_13": "", "field_14": "", "field_15": "", "field_16": "", "field_17": "", "osm_type": "way", "display_name": "Byline Bank Aragon Ballroom, 1106, West Lawrence Avenue, Uptown Retail, Uptown, Chicago, Lake View Township, Cook County, Illinois, 60640, United States", "place_id": "113054842", "class": "tourism", "type_2": "attraction", "road": "West Lawrence Avenue", "village": null, "city_district": null, "town": null, "city_2": "Chicago", "state": "Illinois", "country_2": "United States", "postcode": "60640" }, "geometry": { "type": "Point", "coordinates": [ -87.658025974642229, 41.96943115 ] } },
{ "type": "Feature", "properties": { "ID": "2", "Name": "Delilah’s", "Address": "2771 N Lincoln Ave, Chicago IL 60647", "City": "Chicago", "Country": "USA", "Website": "https://delilahschicago.com", "Type": "pub", "Type_Public": "pub", "Food": "no", "Description": "Premier rock/punk bar with killer selection of fire water.", "Review": "", "field_12": "", "field_13": "", "field_14": "", "field_15": "", "field_16": "", "field_17": "", "osm_type": "way", "display_name": "2771, North Lincoln Avenue, Lincoln Park, Chicago, Lake View Township, Cook County, Illinois, 60614, United States", "place_id": "313696395", "class": "place", "type_2": "house", "road": "North Lincoln Avenue", "village": null, "city_district": null, "town": null, "city_2": "Chicago", "state": "Illinois", "country_2": "United States", "postcode": "60614" }, "geometry": { "type": "Point", "coordinates": [ -87.657866268238578, 41.932066368164946 ] } },
{ "type": "Feature", "properties": { "ID": "3", "Name": "El Bar", "Address": "1356 N Front St, Philadelphia, PA 19122", "City": "Philadelphia", "Country": "USA", "Website": "https://m.facebook.com/The-El-Bar-76572966730/", "Type": "pubandvenue", "Type_Public": "pub and venue", "Food": "not sure", "Description": "Check website for details. Metal bands only play once and a while.", "Review": "", "field_12": "", "field_13": "", "field_14": "", "field_15": "", "field_16": "", "field_17": "", "osm_type": "way", "display_name": "1356, North Front Street, Fishtown, Philadelphia, Philadelphia County, Pennsylvania, 19122, United States", "place_id": "304116294", "class": "place", "type_2": "house", "road": "North Front Street", "village": null, "city_district": null, "town": null, "city_2": "Philadelphia", "state": "Pennsylvania", "country_2": "United States", "postcode": "19122" }, "geometry": { "type": "Point", "coordinates": [ -75.13561685714285, 39.971209 ] } },
{ "type": "Feature", "properties": { "ID": "4", "Name": "Halfords Rock Cafe", "Address": "Mainzer Str 15, 10247 Berlin", "City": "Berlin", "Country": "Germany", "Website": "https://www.halford-berlin.de/", "Type": "pub", "Type_Public": "pub", "Food": "not sure", "Description": "One-off metal/rock pub with all the right accoutrements.", "Review": "", "field_12": "", "field_13": "", "field_14": "", "field_15": "", "field_16": "", "field_17": "", "osm_type": "node", "display_name": "Rockcafé Halford, 15, Mainzer Straße, Samariterviertel, Friedrichshain, Friedrichshain-Kreuzberg, Berlin, 10247, Germany", "place_id": "770659", "class": "amenity", "type_2": "pub", "road": "Mainzer Straße", "village": null, "city_district": null, "town": null, "city_2": "Berlin", "state": null, "country_2": "Germany", "postcode": "10247" }, "geometry": { "type": "Point", "coordinates": [ 13.4617297, 52.512183 ] } },
{ "type": "Feature", "properties": { "ID": "5", "Name": "House of Blues", "Address": "329 N Dearborn St, Chicago, IL 60654", "City": "Chicago", "Country": "USA", "Website": "https://www.houseofblues.com/chicago", "Type": "venue", "Type_Public": "venue", "Food": "no", "Description": "Check website for details. Metal bands only play once and a while.", "Review": "", "field_12": "", "field_13": "", "field_14": "", "field_15": "", "field_16": "", "field_17": "", "osm_type": "way", "display_name": "House of Blues, 329, North Dearborn Street, River North, Near North Side, Chicago, Cook County, Illinois, 60654, United States", "place_id": "142273416", "class": "amenity", "type_2": "restaurant", "road": "North Dearborn Street", "village": null, "city_district": null, "town": null, "city_2": "Chicago", "state": "Illinois", "country_2": "United States", "postcode": "60654" }, "geometry": { "type": "Point", "coordinates": [ -87.629098997588954, 41.88827335 ] } },
{ "type": "Feature", "properties": { "ID": "6", "Name": "Kuma's Corner", "Address": "2900 W Belmont Ave, Chicago IL 60618", "City": "Chicago", "Country": "USA", "Website": "https://www.kumascorner.com", "Type": "pubandrestaurant", "Type_Public": "pub and restaurant", "Food": "yes", "Description": "Vinyl spins while you stuff your face full of custom hamburgers.", "Review": "", "field_12": "", "field_13": "", "field_14": "", "field_15": "", "field_16": "", "field_17": "", "osm_type": "node", "display_name": "Kuma’s Corner - Belmont, 2900, West Belmont Avenue, Avondale, Chicago, Cook County, Illinois, 60618, United States", "place_id": "3083442", "class": "amenity", "type_2": "pub", "road": "West Belmont Avenue", "village": null, "city_district": null, "town": null, "city_2": "Chicago", "state": "Illinois", "country_2": "United States", "postcode": "60618" }, "geometry": { "type": "Point", "coordinates": [ -87.7004397, 41.939509 ] } },
{ "type": "Feature", "properties": { "ID": "7", "Name": "Kung Fu Necktie", "Address": "1250 N Front St, Philadelphia, PA 19122", "City": "Philadelphia", "Country": "USA", "Website": "https://kungfunecktie.com/", "Type": "venue", "Type_Public": "venue", "Food": "no", "Description": "Check website for details. Metal bands only play once and a while.", "Review": "", "field_12": "", "field_13": "", "field_14": "", "field_15": "", "field_16": "", "field_17": "", "osm_type": "node", "display_name": "Kung Fu Necktie, 1250, North Front Street, Fishtown, Philadelphia, Philadelphia County, Pennsylvania, 19122, United States", "place_id": "52356254", "class": "place", "type_2": "house", "road": "North Front Street", "village": null, "city_district": null, "town": null, "city_2": "Philadelphia", "state": "Pennsylvania", "country_2": "United States", "postcode": "19122" }, "geometry": { "type": "Point", "coordinates": [ -75.1359768, 39.970277 ] } },
{ "type": "Feature", "properties": { "ID": "8", "Name": "Liar’s Club", "Address": "1665 W Fullerton Ave, Chicago, IL 60614", "City": "Chicago", "Country": "USA", "Website": "https://www.facebook.com/liarsclubchicago/", "Type": "pubandvenue", "Type_Public": "pub and venue", "Food": "no", "Description": "Check website for details. Metal bands only play once and a while.", "Review": "", "field_12": "", "field_13": "", "field_14": "", "field_15": "", "field_16": "", "field_17": "", "osm_type": "node", "display_name": "Liars Club, 1665, West Fullerton Avenue, Lincoln Park, Chicago, Lake View Township, Cook County, Illinois, 60614, United States", "place_id": "43706972", "class": "amenity", "type_2": "bar", "road": "West Fullerton Avenue", "village": null, "city_district": null, "town": null, "city_2": "Chicago", "state": "Illinois", "country_2": "United States", "postcode": "60614" }, "geometry": { "type": "Point", "coordinates": [ -87.6706571, 41.9249859 ] } },
{ "type": "Feature", "properties": { "ID": "9", "Name": "Live Wire", "Address": "3394 N Milwaukee Ave, Chicago, IL 60641", "City": "Chicago", "Country": "USA", "Website": "https://www.livewireloungechicago.com/", "Type": "pubandvenue", "Type_Public": "pub and venue", "Food": "no", "Description": "Nice dark dive if you want a beer. They do have a stage of sorts too.", "Review": "", "field_12": "", "field_13": "", "field_14": "", "field_15": "", "field_16": "", "field_17": "", "osm_type": "node", "display_name": "Live Wire Lounge, 3394, North Milwaukee Avenue, Irving Park, Chicago, Jefferson Township, Cook County, Illinois, 60641, United States", "place_id": "48622151", "class": "amenity", "type_2": "bar", "road": "North Milwaukee Avenue", "village": null, "city_district": null, "town": null, "city_2": "Chicago", "state": "Illinois", "country_2": "United States", "postcode": "60641" }, "geometry": { "type": "Point", "coordinates": [ -87.7303791, 41.9429008 ] } },
{ "type": "Feature", "properties": { "ID": "10", "Name": "Reggies", "Address": "2105 S State St, Chicago IL, 60616", "City": "Chicago", "Country": "USA", "Website": "https://www.reggieslive.com/", "Type": "venue", "Type_Public": "venue", "Food": "yes", "Description": "Venue with killer sound that has metal bands play most of the time.", "Review": "", "field_12": "", "field_13": "", "field_14": "", "field_15": "", "field_16": "", "field_17": "", "osm_type": "node", "display_name": "Reggies Music Joint, 2105, South State Street, South Loop, Near South Side, Chicago, Cook County, Illinois, 60616, United States", "place_id": "67575283", "class": "amenity", "type_2": "bar", "road": "South State Street", "village": null, "city_district": null, "town": null, "city_2": "Chicago", "state": "Illinois", "country_2": "United States", "postcode": "60616" }, "geometry": { "type": "Point", "coordinates": [ -87.6267847, 41.8539929 ] } },
{ "type": "Feature", "properties": { "ID": "11", "Name": "Riviera Theatre", "Address": "4746 N. Racine Ave, Chicago, IL 60640", "City": "Chicago", "Country": "USA", "Website": "https://www.jamusa.com/venues/riviera-theatre", "Type": "venue", "Type_Public": "venue", "Food": "no", "Description": "Check website for details. Metal bands only play once and a while.", "Review": "", "field_12": "", "field_13": "", "field_14": "", "field_15": "", "field_16": "", "field_17": "", "osm_type": "way", "display_name": "Riviera Theatre, 4746, North Racine Avenue, Asia on Argyle, Uptown, Chicago, Lake View Township, Cook County, Illinois, 60640, United States", "place_id": "155832875", "class": "amenity", "type_2": "theatre", "road": "North Racine Avenue", "village": null, "city_district": null, "town": null, "city_2": "Chicago", "state": "Illinois", "country_2": "United States", "postcode": "60640" }, "geometry": { "type": "Point", "coordinates": [ -87.659894492331887, 41.96856925 ] } },
{ "type": "Feature", "properties": { "ID": "12", "Name": "Thalia Hall", "Address": "1807 S. Allport St, Chicago, IL 60608", "City": "Chicago", "Country": "USA", "Website": "https://www.thaliahallchicago.com/", "Type": "venue", "Type_Public": "venue", "Food": "no", "Description": "Check website for details. Metal bands only play once and a while.", "Review": "", "field_12": "", "field_13": "", "field_14": "", "field_15": "", "field_16": "", "field_17": "", "osm_type": "way", "display_name": "1807, South Allport Street, Pilsen, Lower West Side, Chicago, Cook County, Illinois, 60608, United States", "place_id": "313625222", "class": "place", "type_2": "house", "road": "South Allport Street", "village": null, "city_district": null, "town": null, "city_2": "Chicago", "state": "Illinois", "country_2": "United States", "postcode": "60608" }, "geometry": { "type": "Point", "coordinates": [ -87.657533200629828, 41.857716021594122 ] } },
{ "type": "Feature", "properties": { "ID": "13", "Name": "The Beat Kitchen", "Address": "2100 W Belmont Ave, Chicago, IL 60618", "City": "Chicago", "Country": "USA", "Website": "https://beatkitchen.com", "Type": "pubandrestaurant", "Type_Public": "pub and restaurant", "Food": "yes", "Description": "Check website for details. Metal bands only play once and a while.", "Review": "", "field_12": "", "field_13": "", "field_14": "", "field_15": "", "field_16": "", "field_17": "", "osm_type": "node", "display_name": "Beat Kitchen, 2100, West Belmont Avenue, Bricktown, North Center, Chicago, Lake View Township, Cook County, Illinois, 60618, United States", "place_id": "43780830", "class": "amenity", "type_2": "nightclub", "road": "West Belmont Avenue", "village": null, "city_district": null, "town": null, "city_2": "Chicago", "state": "Illinois", "country_2": "United States", "postcode": "60618" }, "geometry": { "type": "Point", "coordinates": [ -87.6809395, 41.9396725 ] } },
{ "type": "Feature", "properties": { "ID": "14", "Name": "The Empty Bottle", "Address": "1035 N Western Ave, Chicago, IL 60622", "City": "Chicago", "Country": "USA", "Website": "https://www.emptybottle.com/", "Type": "pubandvenue", "Type_Public": "pub and venue", "Food": "no", "Description": "Check website for details. Metal bands only play once and a while.", "Review": "", "field_12": "", "field_13": "", "field_14": "", "field_15": "", "field_16": "", "field_17": "", "osm_type": "node", "display_name": "The Empty Bottle, 1035, North Western Avenue, Ukrainian Village, West Town, Chicago, Cook County, Illinois, 60622, United States", "place_id": "68317369", "class": "amenity", "type_2": "bar", "road": "North Western Avenue", "village": null, "city_district": null, "town": null, "city_2": "Chicago", "state": "Illinois", "country_2": "United States", "postcode": "60622" }, "geometry": { "type": "Point", "coordinates": [ -87.6866529, 41.9004807 ] } },
{ "type": "Feature", "properties": { "ID": "15", "Name": "The Exit", "Address": "1315 W North Ave, Chicago, IL 60642", "City": "Chicago", "Country": "USA", "Website": "", "Type": "pub", "Type_Public": "pub", "Food": "no", "Description": "Old-ass punk bar. They don’t mess around. Closed temporarily in 2021.", "Review": "", "field_12": "", "field_13": "", "field_14": "", "field_15": "", "field_16": "", "field_17": "", "osm_type": "way", "display_name": "Exit Chicago, 1315, West North Avenue, West Town, Chicago, Cook County, Illinois, 60642, United States", "place_id": "155667892", "class": "amenity", "type_2": "bar", "road": "West North Avenue", "village": null, "city_district": null, "town": null, "city_2": "Chicago", "state": "Illinois", "country_2": "United States", "postcode": "60642" }, "geometry": { "type": "Point", "coordinates": [ -87.66100935, 41.91050775 ] } },
{ "type": "Feature", "properties": { "ID": "16", "Name": "The Forge", "Address": "22 W Cass St, Joliet, IL 60432", "City": "Joliet", "Country": "USA", "Website": "https://theforgelive.com/", "Type": "venue", "Type_Public": "venue", "Food": "no", "Description": "Check website for details. Metal bands only play once and a while.", "Review": "", "field_12": "", "field_13": "", "field_14": "", "field_15": "", "field_16": "", "field_17": "", "osm_type": "way", "display_name": "Cass Street, Joliet, Will County, Illinois, 60432, United States", "place_id": "233553274", "class": "highway", "type_2": "primary", "road": "Cass Street", "village": null, "city_district": null, "town": null, "city_2": "Joliet", "state": "Illinois", "country_2": "United States", "postcode": "60432" }, "geometry": { "type": "Point", "coordinates": [ -88.0662578, 41.5279967 ] } },
{ "type": "Feature", "properties": { "ID": "17", "Name": "The Vic Theatre", "Address": "3145 N Sheffield Ave, Chicago, IL ", "City": "Chicago", "Country": "USA", "Website": "https://www.jamusa.com/venues/the-vic", "Type": "venue", "Type_Public": "venue", "Food": "no", "Description": "Check website for details. Metal bands only play once and a while.", "Review": "", "field_12": "", "field_13": "", "field_14": "", "field_15": "", "field_16": "", "field_17": "", "osm_type": "way", "display_name": "The Vic, 3145, North Sheffield Avenue, Northalsted, Lake View, Chicago, Lake View Township, Cook County, Illinois, 60657, United States", "place_id": "155923977", "class": "amenity", "type_2": "theatre", "road": "North Sheffield Avenue", "village": null, "city_district": null, "town": null, "city_2": "Chicago", "state": "Illinois", "country_2": "United States", "postcode": "60657" }, "geometry": { "type": "Point", "coordinates": [ -87.653739209162467, 41.93951775 ] } },
{ "type": "Feature", "properties": { "ID": "18", "Name": "Reckless Records", "Address": "929 W Belmont Ave, Chicago, IL 60657", "City": "Chicago", "Country": "USA", "Website": "https://www.reckless.com/", "Type": "recordstore", "Type_Public": "recordstore", "Food": "no", "Description": "Good selection of old and new vinyl. Pretty healthy selection of metal, punk and rock n’ roll. ", "Review": "", "field_12": "", "field_13": "", "field_14": "", "field_15": "", "field_16": "", "field_17": "", "osm_type": "way", "display_name": "929-931, West Belmont Avenue, Northalsted, Lake View, Chicago, Lake View Township, Cook County, Illinois, 60657, United States", "place_id": "157361457", "class": "building", "type_2": "yes", "road": "West Belmont Avenue", "village": null, "city_district": null, "town": null, "city_2": "Chicago", "state": "Illinois", "country_2": "United States", "postcode": "60657" }, "geometry": { "type": "Point", "coordinates": [ -87.652690589659713, 41.9397065 ] } },
{ "type": "Feature", "properties": { "ID": "19", "Name": "Reckless Records", "Address": "1379 N Milwaukee Ave, Chicago, IL 60622", "City": "Chicago", "Country": "USA", "Website": "https://www.reckless.com/", "Type": "recordstore", "Type_Public": "recordstore", "Food": "no", "Description": "Good selection of old and new vinyl. Pretty healthy selection of metal, punk and rock n’ roll. ", "Review": "", "field_12": "", "field_13": "", "field_14": "", "field_15": "", "field_16": "", "field_17": "", "osm_type": "node", "display_name": "Reckless Records, 1379, North Milwaukee Avenue, Wicker Park, West Town, Chicago, Cook County, Illinois, 60622, United States", "place_id": "43252985", "class": "shop", "type_2": "music", "road": "North Milwaukee Avenue", "village": null, "city_district": null, "town": null, "city_2": "Chicago", "state": "Illinois", "country_2": "United States", "postcode": "60622" }, "geometry": { "type": "Point", "coordinates": [ -87.6719041, 41.9070052 ] } },
{ "type": "Feature", "properties": { "ID": "20", "Name": "Reckless Records", "Address": "26 E Madison St, Chicago, IL 60602", "City": "Chicago", "Country": "USA", "Website": "https://www.reckless.com/", "Type": "recordstore", "Type_Public": "recordstore", "Food": "no", "Description": "Good selection of old and new vinyl. Pretty healthy selection of metal, punk and rock n’ roll. ", "Review": "", "field_12": "", "field_13": "", "field_14": "", "field_15": "", "field_16": "", "field_17": "", "osm_type": "node", "display_name": "Reckless Records, 26, East Madison Street, Loop, Chicago, Cook County, Illinois, 60602, United States", "place_id": "30826999", "class": "shop", "type_2": "music", "road": "East Madison Street", "village": null, "city_district": null, "town": null, "city_2": "Chicago", "state": "Illinois", "country_2": "United States", "postcode": "60602" }, "geometry": { "type": "Point", "coordinates": [ -87.6266824, 41.8822256 ] } },
{ "type": "Feature", "properties": { "ID": "22", "Name": "Quantic Pub", "Address": "Șoseaua Grozăvești 82, 060752 Bucharest", "City": "Bucharest", "Country": "Romania", "Website": "https://www.facebook.com/quanticpub2/", "Type": "pubandvenue", "Type_Public": "pub and venue", "Food": "yes", "Description": "Held Old Grave Festival. Check them out online.", "Review": "", "field_12": "", "field_13": "", "field_14": "", "field_15": "", "field_16": "", "field_17": "", "osm_type": "way", "display_name": "Quantic Pub, 82, Șoseaua Grozăvești, Grozăvești, Sector 6, Bucharest, 060752, Romania", "place_id": "204990741", "class": "amenity", "type_2": "pub", "road": "Șoseaua Grozăvești", "village": null, "city_district": null, "town": null, "city_2": "Bucharest", "state": null, "country_2": "Romania", "postcode": "060752" }, "geometry": { "type": "Point", "coordinates": [ 26.059301785068069, 44.4380587 ] } },
{ "type": "Feature", "properties": { "ID": "23", "Name": "Fabricia Club", "Address": "Strada 11 Iunie 50, 040171 Bucharest", "City": "Bucharest", "Country": "Romania", "Website": "https://fabrica-club.ro/club/", "Type": "venue", "Type_Public": "venue", "Food": "no", "Description": "Held Old Grave Festival. Check them out online.", "Review": "", "field_12": "", "field_13": "", "field_14": "", "field_15": "", "field_16": "", "field_17": "", "osm_type": "node", "display_name": "Fabrica, 50, Strada 11 Iunie, Centrul Civic, Sector 4, Bucharest, 040171, Romania", "place_id": "100531862", "class": "amenity", "type_2": "bar", "road": "Strada 11 Iunie", "village": null, "city_district": "Sector 4", "town": null, "city_2": "Bucharest", "state": null, "country_2": "Romania", "postcode": "040171" }, "geometry": { "type": "Point", "coordinates": [ 26.0951222, 44.4205508 ] } },
{ "type": "Feature", "properties": { "ID": "24", "Name": "Private Hell Rock Club", "Address": "Strada Soarelui 5, 030097 Bucharest", "City": "Bucharest", "Country": "Romania", "Website": "http://privatehell.ro/", "Type": "pub", "Type_Public": "pub", "Food": "no", "Description": "Their slogan is “Rock n’ Roll to Death”. What more do you need to know?", "Review": "", "field_12": "", "field_13": "", "field_14": "", "field_15": "", "field_16": "", "field_17": "", "osm_type": "node", "display_name": "5, Strada Soarelui, Centrul Istoric, Sector 3, Bucharest, 030097, Romania", "place_id": "23507901", "class": "place", "type_2": "house", "road": "Strada Soarelui", "village": null, "city_district": "Sector 3", "town": null, "city_2": "Bucharest", "state": null, "country_2": "Romania", "postcode": "030097" }, "geometry": { "type": "Point", "coordinates": [ 26.1013935, 44.4303735 ] } },
{ "type": "Feature", "properties": { "ID": "25", "Name": "Wicked Bar", "Address": "Strada Spătarului 4, 020774 Bucharest ", "City": "Bucharest", "Country": "Romania", "Website": "https://www.wicked-bar.ro/", "Type": "pub", "Type_Public": "pub", "Food": "no", "Description": "Rock n’ Roll bar.", "Review": "", "field_12": "", "field_13": "", "field_14": "", "field_15": "", "field_16": "", "field_17": "", "osm_type": "node", "display_name": "4, Strada Spătarului, Cartierul Armenesc, Sector 2, Bucharest, 020774, Romania", "place_id": "32113543", "class": "place", "type_2": "house", "road": "Strada Spătarului", "village": null, "city_district": "Sector 2", "town": null, "city_2": "Bucharest", "state": null, "country_2": "Romania", "postcode": "020774" }, "geometry": { "type": "Point", "coordinates": [ 26.1122434, 44.4377564 ] } },
{ "type": "Feature", "properties": { "ID": "26", "Name": "Amnesie", "Address": "Scharnweberstr. 54 10247 Berlin", "City": "Berlin", "Country": "Germany", "Website": "http://www.amnesie-online.de/", "Type": "pub", "Type_Public": "pub", "Food": "no", "Description": "A metal & punk tavern in Berlin.", "Review": "", "field_12": "", "field_13": "", "field_14": "", "field_15": "", "field_16": "", "field_17": "", "osm_type": "node", "display_name": "Butterhandlung, 54, Scharnweberstraße, Samariterviertel, Friedrichshain, Friedrichshain-Kreuzberg, Berlin, 10247, Germany", "place_id": "21194248", "class": "amenity", "type_2": "restaurant", "road": "Scharnweberstraße", "village": null, "city_district": null, "town": null, "city_2": "Berlin", "state": null, "country_2": "Germany", "postcode": "10247" }, "geometry": { "type": "Point", "coordinates": [ 13.4708348, 52.5121747 ] } },
{ "type": "Feature", "properties": { "ID": "27", "Name": "Paules Metal Eck", "Address": "Krossener Str 15 10245 Berlin", "City": "Berlin", "Country": "Germany", "Website": "https://www.facebook.com/Paulesmetaleck/", "Type": "pub", "Type_Public": "pub", "Food": "no", "Description": "Always open from Monday - Sunday at 5pm.", "Review": "", "field_12": "", "field_13": "", "field_14": "", "field_15": "", "field_16": "", "field_17": "", "osm_type": "node", "display_name": "Paule's Metal Eck, 15, Krossener Straße, Friedrichshain, Friedrichshain-Kreuzberg, Berlin, 10245, Germany", "place_id": "785199", "class": "amenity", "type_2": "pub", "road": "Krossener Straße", "village": null, "city_district": null, "town": null, "city_2": "Berlin", "state": null, "country_2": "Germany", "postcode": "10245" }, "geometry": { "type": "Point", "coordinates": [ 13.4568209, 52.5106855 ] } },
{ "type": "Feature", "properties": { "ID": "28", "Name": "Duff's", "Address": "Marcy Ave 168 11211 New York", "City": "New York City", "Country": "USA", "Website": "http://www.duffsbrooklyn.com/", "Type": "pub", "Type_Public": "pub", "Food": "no", "Description": "", "Review": "", "field_12": "", "field_13": "", "field_14": "", "field_15": "", "field_16": "", "field_17": "", "osm_type": "way", "display_name": "168, Marcy Avenue, Williamsburg, Brooklyn, Kings County, New York, 11211, United States", "place_id": "173397353", "class": "building", "type_2": "yes", "road": "Marcy Avenue", "village": null, "city_district": null, "town": null, "city_2": "New York", "state": "New York", "country_2": "United States", "postcode": "11211" }, "geometry": { "type": "Point", "coordinates": [ -73.957881015476175, 40.70885025 ] } },
{ "type": "Feature", "properties": { "ID": "29", "Name": "Saint Vitus Bar", "Address": "Manhattan Ave 1120 11222 New York", "City": "New York City", "Country": "USA", "Website": "https://www.saintvitusbar.com/", "Type": "pubandvenue", "Type_Public": "pub and venue", "Food": "no", "Description": "", "Review": "", "field_12": "", "field_13": "", "field_14": "", "field_15": "", "field_16": "", "field_17": "", "osm_type": "node", "display_name": "Saint Vitus Bar, 1120, Manhattan Avenue, Brooklyn, Kings County, New York, 11222, United States", "place_id": "91630637", "class": "amenity", "type_2": "bar", "road": "Manhattan Avenue", "village": null, "city_district": null, "town": null, "city_2": "New York", "state": "New York", "country_2": "United States", "postcode": "11222" }, "geometry": { "type": "Point", "coordinates": [ -73.9551724, 40.7367784 ] } },
{ "type": "Feature", "properties": { "ID": "30", "Name": "Lucky 13 Saloon", "Address": "Sackett St 644 11217 New York", "City": "New York City", "Country": "USA", "Website": "https://www.lucky13saloon.com/", "Type": "pubandvenue", "Type_Public": "pub and venue", "Food": "no", "Description": "Straight up METAL bar.", "Review": "", "field_12": "", "field_13": "", "field_14": "", "field_15": "", "field_16": "", "field_17": "", "osm_type": "way", "display_name": "Lucky 13, 644, Sackett Street, Brooklyn, Kings County, New York, 11217, United States", "place_id": "165621952", "class": "amenity", "type_2": "bar", "road": "Sackett Street", "village": null, "city_district": null, "town": null, "city_2": "New York", "state": "New York", "country_2": "United States", "postcode": "11217" }, "geometry": { "type": "Point", "coordinates": [ -73.983598377559687, 40.67820235 ] } },
{ "type": "Feature", "properties": { "ID": "31", "Name": "Rocka Rolla", "Address": "Metropolitan Ave 486 11211 New York", "City": "New York City", "Country": "USA", "Website": "https://www.facebook.com/people/Rocka-Rolla/100063685263540/", "Type": "pub", "Type_Public": "pub", "Food": "no", "Description": "", "Review": "", "field_12": "", "field_13": "", "field_14": "", "field_15": "", "field_16": "", "field_17": "", "osm_type": "node", "display_name": "Rocka Rolla, 486, Metropolitan Avenue, Williamsburg, Brooklyn, Kings County, New York, 11211, United States", "place_id": "58997509", "class": "amenity", "type_2": "bar", "road": "Metropolitan Avenue", "village": null, "city_district": null, "town": null, "city_2": "New York", "state": "New York", "country_2": "United States", "postcode": "11211" }, "geometry": { "type": "Point", "coordinates": [ -73.952822, 40.7139355 ] } },
{ "type": "Feature", "properties": { "ID": "32", "Name": "Dingbatz", "Address": "Van Houten Ave 620 07013 Clifton, NJ", "City": "Clifton", "Country": "USA", "Website": "https://www.facebook.com/DingbatzNJ/", "Type": "pubandvenue", "Type_Public": "pub and venue", "Food": "no", "Description": "I guess a lot of local talent play here.", "Review": "", "field_12": "", "field_13": "", "field_14": "", "field_15": "", "field_16": "", "field_17": "", "osm_type": "way", "display_name": "Dingbatz, 620, Van Houten Avenue, Athenia, Clifton, Passaic County, New Jersey, 07013, United States", "place_id": "283366687", "class": "amenity", "type_2": "events_venue", "road": "Van Houten Avenue", "village": null, "city_district": null, "town": "Clifton", "city_2": null, "state": "New Jersey", "country_2": "United States", "postcode": "07013" }, "geometry": { "type": "Point", "coordinates": [ -74.147522000351117, 40.8580181 ] } },
{ "type": "Feature", "properties": { "ID": "34", "Name": "The Dungeon", "Address": "738 Toulouse St New Orleans, LA 70130", "City": "New Orleans", "Country": "USA", "Website": "http://www.thedungeonneworleans.com/", "Type": "pub", "Type_Public": "pub", "Food": "no", "Description": "Dark and deep down. This has been around for decades.", "Review": "", "field_12": "", "field_13": "", "field_14": "", "field_15": "", "field_16": "", "field_17": "", "osm_type": "node", "display_name": "738, Toulouse Street, French Quarter, New Orleans, Orleans Parish, Louisiana, 70130, United States", "place_id": "41634773", "class": "place", "type_2": "house", "road": "Toulouse Street", "village": null, "city_district": null, "town": null, "city_2": "New Orleans", "state": "Louisiana", "country_2": "United States", "postcode": "70130" }, "geometry": { "type": "Point", "coordinates": [ -90.0662896, 29.9576548 ] } },
{ "type": "Feature", "properties": { "ID": "35", "Name": "Reckless Records", "Address": "30, Berwick St, Soho, London W1F 8RH", "City": "London", "Country": "UK", "Website": "https://reckless.co.uk/", "Type": "recordstore", "Type_Public": "recordstore", "Food": "no", "Description": "Excellent selection of music. Their metal section is pretty sizeable.", "Review": "", "field_12": "", "field_13": "", "field_14": "", "field_15": "", "field_16": "", "field_17": "", "osm_type": "way", "display_name": "Reckless Records, 30, Berwick Street, Soho, Islington, City of Westminster, Greater London, England, W1F 8RQ, United Kingdom", "place_id": "142844470", "class": "shop", "type_2": "music", "road": "Berwick Street", "village": null, "city_district": null, "town": "Islington", "city_2": "City of Westminster", "state": "England", "country_2": "United Kingdom", "postcode": "W1F 8RQ" }, "geometry": { "type": "Point", "coordinates": [ -0.1352922946875, 51.51433685 ] } },
{ "type": "Feature", "properties": { "ID": "37", "Name": "Vinyl Altar", "Address": "732 S 4th St Philadelphia, PA 19147", "City": "Philadelphia", "Country": "USA", "Website": "https://linktr.ee/vinylaltar", "Type": "recordstore", "Type_Public": "recordstore", "Food": "no", "Description": "Record store specializing in metal.", "Review": "", "field_12": "", "field_13": "", "field_14": "", "field_15": "", "field_16": "", "field_17": "", "osm_type": "way", "display_name": "732, South 4th Street, Block Group 1, Philadelphia, PA, South Philadelphia, Philadelphia, Philadelphia County, Pennsylvania, 19147, United States", "place_id": "350599173", "class": "building", "type_2": "yes", "road": "South 4th Street", "village": null, "city_district": null, "town": null, "city_2": "Philadelphia", "state": "Pennsylvania", "country_2": "United States", "postcode": "19147" }, "geometry": { "type": "Point", "coordinates": [ -75.14976966449467, 39.9396712 ] } },
{ "type": "Feature", "properties": { "ID": "39", "Name": "Trve Brewing Co.", "Address": "227 N Broadway, Denver, CO 80203", "City": "Denver", "Country": "USA", "Website": "https://www.trvebrewing.com/", "Type": "pub", "Type_Public": "pub", "Food": "yes", "Description": "Beer. Metal. Denver.", "Review": "", "field_12": "", "field_13": "", "field_14": "", "field_15": "", "field_16": "", "field_17": "", "osm_type": "node", "display_name": "Goldmine Vintage, 227 N  #102, Broadway, Denver, Colorado, 80203, United States", "place_id": "99870801", "class": "shop", "type_2": "clothes", "road": "Broadway", "village": null, "city_district": null, "town": null, "city_2": "Denver", "state": "Colorado", "country_2": "United States", "postcode": "80203" }, "geometry": { "type": "Point", "coordinates": [ -104.9877199, 39.7201026 ] } },
{ "type": "Feature", "properties": { "ID": "40", "Name": "Waterfront Bar & Grill", "Address": "Waterfront, 2044 Kettner Blvd, San Diego, CA 92101", "City": "San Diego", "Country": "USA", "Website": "https://waterfrontbarandgrill.com/", "Type": "pub", "Type_Public": "pub", "Food": "yes", "Description": "San Diego's oldest bar, it's claimed. Loud music, mostly alternative. Nothing really underground.", "Review": "", "field_12": "", "field_13": "", "field_14": "", "field_15": "", "field_16": "", "field_17": "", "osm_type": null, "display_name": null, "place_id": null, "class": null, "type_2": null, "road": null, "village": null, "city_district": null, "town": null, "city_2": null, "state": null, "country_2": null, "postcode": null }, "geometry": null },
{ "type": "Feature", "properties": { "ID": "41", "Name": "Three Floyds Brewpub", "Address": "9750 Indiana Pkwy, Munster, Indiana 46321", "City": "Munster", "Country": "USA", "Website": "https://www.3floyds.com/", "Type": "pub", "Type_Public": "pub", "Food": "yes", "Description": "Micro brew known for its quality and uniqueness. They have a record collection that they spin from, mostly metal, during your fine dining experience.", "Review": "", "field_12": "", "field_13": "", "field_14": "", "field_15": "", "field_16": "", "field_17": "", "osm_type": "node", "display_name": "3 Floyd's Brewpub, 9750, Indiana Parkway, West Lakes, Munster, Lake County, Indiana, 46321, United States", "place_id": "20204927", "class": "amenity", "type_2": "pub", "road": "Indiana Parkway", "village": null, "city_district": null, "town": "Munster", "city_2": null, "state": "Indiana", "country_2": "United States", "postcode": "46321" }, "geometry": { "type": "Point", "coordinates": [ -87.5165134, 41.5353502 ] } },
{ "type": "Feature", "properties": { "ID": "42", "Name": "Kvlt", "Address": "Iso Roobertinkatu 42 00120 Helsinki Finland", "City": "Helsinki", "Country": "Finland", "Website": "https://kvlt.fi/", "Type": "recordstore", "Type_Public": "recordstore", "Food": "no", "Description": "Well, if you didn't alrady guess their content by the name...", "Review": "", "field_12": "", "field_13": "", "field_14": "", "field_15": "", "field_16": "", "field_17": "", "osm_type": "node", "display_name": "KVLT, 42, Iso Roobertinkatu, Viiskulma, Punavuori, Southern major district, Helsinki, Helsinki sub-region, Uusimaa, Southern Finland, Mainland Finland, 00120, Finland", "place_id": "54760248", "class": "shop", "type_2": "music", "road": "Iso Roobertinkatu", "village": null, "city_district": "Southern major district", "town": null, "city_2": "Helsinki", "state": null, "country_2": "Finland", "postcode": "00120" }, "geometry": { "type": "Point", "coordinates": [ 24.9383913, 60.162066 ] } },
{ "type": "Feature", "properties": { "ID": "43", "Name": "The Other Records", "Address": "Helsinginkatu 32, 00530 Helsinki Finland ", "City": "Helsinki", "Country": "Finland", "Website": "https://theotherrecords.com/", "Type": "recordstore", "Type_Public": "recordstore", "Food": "no", "Description": "The Other Records is an underground label / distro based in Helsinki, Finland focusing on the obscure, the ugly and the transgressive.", "Review": "", "field_12": "", "field_13": "", "field_14": "", "field_15": "", "field_16": "", "field_17": "", "osm_type": "way", "display_name": "Helsinginkatu, Kurvi, Harju, Alppiharju, Central major district, Helsinki, Helsinki sub-region, Uusimaa, Southern Finland, Mainland Finland, 00530, Finland", "place_id": "113648255", "class": "highway", "type_2": "secondary", "road": "Helsinginkatu", "village": null, "city_district": "Central major district", "town": null, "city_2": "Helsinki", "state": null, "country_2": "Finland", "postcode": "00530" }, "geometry": { "type": "Point", "coordinates": [ 24.9509254, 60.1866931 ] } },
{ "type": "Feature", "properties": { "ID": "44", "Name": "Tavastia", "Address": "Urho Kekkosen katu 4-6 00100 Helsinki Finland", "City": "Helsinki", "Country": "Finland", "Website": "https://tavastiaklubi.fi/en/", "Type": "venue", "Type_Public": "venue", "Food": "no", "Description": "Live music venue with metal shows once and a while. Check out their website.", "Review": "", "field_12": "", "field_13": "", "field_14": "", "field_15": "", "field_16": "", "field_17": "", "osm_type": "node", "display_name": "Tavastia Klubi, 4-6, Urho Kekkosen katu, Kamppi, Southern major district, Helsinki, Helsinki sub-region, Uusimaa, Southern Finland, Mainland Finland, 00100, Finland", "place_id": "13469249", "class": "amenity", "type_2": "nightclub", "road": "Urho Kekkosen katu", "village": null, "city_district": "Southern major district", "town": null, "city_2": "Helsinki", "state": null, "country_2": "Finland", "postcode": "00100" }, "geometry": { "type": "Point", "coordinates": [ 24.9329693, 60.1685036 ] } },
{ "type": "Feature", "properties": { "ID": "45", "Name": "Warpigs Brewpub", "Address": "Flæsketorvet 25-37, 1711 Copenhagen, Denmark", "City": "Copenhagen", "Country": "Denmark", "Website": "https://mikkeller.com/locations/warpigs", "Type": "pub", "Type_Public": "pub", "Food": "yes", "Description": "In Copenhagen's former Meatpacking District, you’ll come across a place that will appeal to anyone who likes their IPAs ultra hoppy and fresh from the tank – that place is Warpigs Brewpub.", "Review": "", "field_12": "", "field_13": "", "field_14": "", "field_15": "", "field_16": "", "field_17": "", "osm_type": "way", "display_name": "Flæsketorvet, Meatpacking District, Vesterbro, Copenhagen, Copenhagen Municipality, Capital Region of Denmark, 1711, Denmark", "place_id": "109351127", "class": "highway", "type_2": "service", "road": "Flæsketorvet", "village": null, "city_district": null, "town": null, "city_2": "Copenhagen", "state": "Capital Region of Denmark", "country_2": "Denmark", "postcode": "1711" }, "geometry": { "type": "Point", "coordinates": [ 12.55937, 55.6684452 ] } },
{ "type": "Feature", "properties": { "ID": "46", "Name": "LBM", "Address": "12301 Madison Ave Lakewood, OH 44107", "City": "Lakewood", "Country": "USA", "Website": "http://www.lbmbar.com/", "Type": "pub", "Type_Public": "pub", "Food": "yes", "Description": "Your Friendly Neighborhood Cocktail Bar. Norse Aesthetic. Loud Music", "Review": "", "field_12": "", "field_13": "", "field_14": "", "field_15": "", "field_16": "", "field_17": "", "osm_type": "way", "display_name": "12301, Madison Avenue, Madison Village, Birdtown, Lakewood, Cuyahoga County, Ohio, 44107, United States", "place_id": "311881050", "class": "place", "type_2": "house", "road": "Madison Avenue", "village": null, "city_district": null, "town": "Lakewood", "city_2": null, "state": "Ohio", "country_2": "United States", "postcode": "44107" }, "geometry": { "type": "Point", "coordinates": [ -81.775017, 41.476849 ] } },
{ "type": "Feature", "properties": { "ID": "47", "Name": "The Dark Room", "Address": "1100 West Royalton Rd, Broadview Heights, OH 44147", "City": "Broadview Heights", "Country": "USA", "Website": "https://thedarkroombar.com/", "Type": "pub", "Type_Public": "pub", "Food": "yes", "Description": "Check out our horror inspired drink menu with various signature cocktails including the Crystal Lake, Frankenstein, and Captain Spaulding. Kitchen is always open LATE!", "Review": "", "field_12": "", "field_13": "", "field_14": "", "field_15": "", "field_16": "", "field_17": "", "osm_type": "way", "display_name": "West Royalton Road, Broadview Heights, Cuyahoga County, Ohio, 44147, United States", "place_id": "235817711", "class": "highway", "type_2": "primary", "road": "West Royalton Road", "village": null, "city_district": null, "town": "Broadview Heights", "city_2": null, "state": "Ohio", "country_2": "United States", "postcode": "44147" }, "geometry": { "type": "Point", "coordinates": [ -81.687277, 41.3138886 ] } },
{ "type": "Feature", "properties": { "ID": "48", "Name": "Rock & Wikingerbar", "Address": "Dolzigerstr 24 10247 Berlin Germany", "City": "Berlin", "Country": "Germany", "Website": "https://www.facebook.com/Wickibar/", "Type": "pub", "Type_Public": "pub", "Food": "no", "Description": "Pub with viking theme, classic metal tunes. You can get mead served in a drinking horn.", "Review": "", "field_12": "", "field_13": "", "field_14": "", "field_15": "", "field_16": "", "field_17": "", "osm_type": "node", "display_name": "Rock- und Wikingerbar, 24, Dolziger Straße, Samariterviertel, Friedrichshain, Friedrichshain-Kreuzberg, Berlin, 10247, Germany", "place_id": "3517228", "class": "amenity", "type_2": "pub", "road": "Dolziger Straße", "village": null, "city_district": null, "town": null, "city_2": "Berlin", "state": null, "country_2": "Germany", "postcode": "10247" }, "geometry": { "type": "Point", "coordinates": [ 13.4689703, 52.5185157 ] } },
{ "type": "Feature", "properties": { "ID": "49", "Name": "SO36", "Address": "Oranienstr 190, 10999 Berlin", "City": "Berlin", "Country": "Germany", "Website": "https://www.so36.com/tickets", "Type": "venue", "Type_Public": "venue", "Food": "no", "Description": "Metal bands play here every once in a while. Check their website.", "Review": "", "field_12": "", "field_13": "", "field_14": "", "field_15": "", "field_16": "", "field_17": "", "osm_type": "node", "display_name": "SO36, 190, Oranienstraße, Luisenstadt, Kreuzberg, Friedrichshain-Kreuzberg, Berlin, 10999, Germany", "place_id": "46925904", "class": "amenity", "type_2": "nightclub", "road": "Oranienstraße", "village": null, "city_district": null, "town": null, "city_2": "Berlin", "state": null, "country_2": "Germany", "postcode": "10999" }, "geometry": { "type": "Point", "coordinates": [ 13.4221612, 52.5003909 ] } },
{ "type": "Feature", "properties": { "ID": "50", "Name": "Battle Axe", "Address": "Glatzgasse 4, 1190 Wien", "City": "Vienne", "Country": "Austria", "Website": "https://www.battleaxe.at/", "Type": "pub", "Type_Public": "pub", "Food": "no", "Description": "Metal pub with some cool tables.", "Review": "", "field_12": "", "field_13": "", "field_14": "", "field_15": "", "field_16": "", "field_17": "", "osm_type": "node", "display_name": "4, Glatzgasse, Upper Döbling, Döbling, Vienna, 1190, Austria", "place_id": "17207250", "class": "place", "type_2": "house", "road": "Glatzgasse", "village": null, "city_district": "Döbling", "town": null, "city_2": "Vienna", "state": null, "country_2": "Austria", "postcode": "1190" }, "geometry": { "type": "Point", "coordinates": [ 16.3539539, 48.2330734 ] } },
{ "type": "Feature", "properties": { "ID": "21", "Name": "Brauer House", "Address": "North Avenue 1000 60148 Lombard", "City": "Lombard", "Country": "USA", "Website": "https://www.facebook.com/MetalThreatBooking/", "Type": "restaurantandvenue", "Type_Public": "restaurant and venue", "Food": "yes", "Description": "Underground US tour booking and annual festival in Illinois called Metal Threat Fest.", "Review": "", "field_12": "", "field_13": "", "field_14": "", "field_15": "", "field_16": "", "field_17": "", "osm_type": "way", "display_name": "Brauer House, 1000, North Avenue, Lombard, DuPage County, Illinois, 60148, United States", "place_id": "355053820", "class": "amenity", "type_2": "restaurant", "road": "North Avenue", "village": null, "city_district": null, "town": "Lombard", "city_2": null, "state": "Illinois", "country_2": "United States", "postcode": "60148" }, "geometry": { "type": "Point", "coordinates": [ -88.034473348199953, 41.90529165 ] } },
{ "type": "Feature", "properties": { "ID": "33", "Name": "Rock Stakk Records", "Address": "Rock Stakk Records", "City": "Osaka", "Country": "Japan", "Website": "http://rockstakk.shop-pro.jp/", "Type": "recordstore", "Type_Public": "recordstore", "Food": "no", "Description": "A lot of stuff here!", "Review": "", "field_12": "", "field_13": "", "field_14": "", "field_15": "", "field_16": "", "field_17": "", "osm_type": "node", "display_name": "Rock Stakk Records, Building 2F, Ogimachi-dori, Doyamacho, Kita Ward, Osaka, Osaka Prefecture, 530-0027, Japan", "place_id": "355058097", "class": "shop", "type_2": "music", "road": "Ogimachi-dori", "village": null, "city_district": null, "town": null, "city_2": "Osaka", "state": "Osaka Prefecture", "country_2": "Japan", "postcode": "530-0027" }, "geometry": { "type": "Point", "coordinates": [ 135.502438899999987, 34.7022896 ] } },
{ "type": "Feature", "properties": { "ID": "36", "Name": "Pit Bar", "Address": "Nishiogikubo Pit Bar, 西荻シルクロード, Nishiogi-kita 3-chome, Suginami, Tokyo, 167-0053, Japan", "City": "Tokyo", "Country": "Japan", "Website": "https://www.facebook.com/PitBarTokyo/", "Type": "venue", "Type_Public": "venue", "Food": "no", "Description": "Venue with metal and punk shows. Check their Facebook.", "Review": "", "field_12": "", "field_13": "", "field_14": "", "field_15": "", "field_16": "", "field_17": "", "osm_type": "node", "display_name": "Nishiogikubo Pit Bar, 西荻シルクロード, Nishiogi-kita 3-chome, Suginami, Tokyo, 167-0053, Japan", "place_id": "355059658", "class": "amenity", "type_2": "bar", "road": "西荻シルクロード", "village": null, "city_district": null, "town": null, "city_2": "Suginami", "state": null, "country_2": "Japan", "postcode": "167-0053" }, "geometry": { "type": "Point", "coordinates": [ 139.6009838, 35.7036491 ] } },
{ "type": "Feature", "properties": { "ID": "38", "Name": "Ryogoku Sunrize", "Address": "Ryōgoku Sunrize, Keiyo Road, Ryogoku 3-chome, Sumida, Tokyo, 130-0026, Japan", "City": "Tokyo", "Country": "Japan", "Website": "https://twitter.com/ryougokusunrize", "Type": "venue", "Type_Public": "venue", "Food": "no", "Description": "", "Review": "", "field_12": "", "field_13": "", "field_14": "", "field_15": "", "field_16": "", "field_17": "", "osm_type": "node", "display_name": "Ryōgoku Sunrize, Keiyo Road, Ryogoku 3-chome, Sumida, Tokyo, 130-0026, Japan", "place_id": "355060469", "class": "amenity", "type_2": "bar", "road": "Keiyo Road", "village": null, "city_district": null, "town": null, "city_2": "Sumida", "state": null, "country_2": "Japan", "postcode": "130-0026" }, "geometry": { "type": "Point", "coordinates": [ 139.7956748, 35.695193 ] } },
{ "type": "Feature", "properties": { "ID": "48", "Name": "Rock & Wikingerbar", "Address": "Dolzigerstr 24 10247 Berlin Germany", "City": "Berlin", "Country": "Germany", "Website": "https://www.facebook.com/Wickibar/", "Type": "pub", "Type_Public": "pub", "Food": "no", "Description": "Pub with viking theme, classic metal tunes. You can get mead served in a drinking horn.", "Review": "", "field_12": "", "field_13": "", "field_14": "", "field_15": "", "field_16": "", "field_17": "", "osm_type": "node", "display_name": "Rock- und Wikingerbar, 24, Dolziger Straße, Samariterviertel, Friedrichshain, Friedrichshain-Kreuzberg, Berlin, 10247, Germany", "place_id": "3517228", "class": "amenity", "type_2": "pub", "road": "Dolziger Straße", "village": null, "city_district": null, "town": null, "city_2": "Berlin", "state": null, "country_2": "Germany", "postcode": "10247" }, "geometry": { "type": "Point", "coordinates": [ 13.4689703, 52.5185157 ] } },
{ "type": "Feature", "properties": { "ID": "51", "Name": "Earthdom", "Address": "Okubo-dori Avenue 169-0072 Shinjuku Japan", "City": "Tokyo", "Country": "Japan", "Website": "https://www.facebook.com/Earthdom/", "Type": "venue", "Type_Public": "venue", "Food": "no", "Description": "Venue with metal stuff sometimes. Check their website.", "Review": "", "field_12": "", "field_13": "", "field_14": "", "field_15": "", "field_16": "", "field_17": "", "osm_type": "way", "display_name": "Okubo-dori Avenue, Shinjuku 7-chome, Shinjuku, Tokyo, 169-0072, Japan", "place_id": "128283140", "class": "highway", "type_2": "secondary", "road": "Okubo-dori Avenue", "village": null, "city_district": null, "town": null, "city_2": "Shinjuku", "state": null, "country_2": "Japan", "postcode": "169-0072" }, "geometry": { "type": "Point", "coordinates": [ 139.7094332, 35.7008525 ] } },
{ "type": "Feature", "properties": { "ID": "52", "Name": "Cyclone", "Address": "Shibuya Cyclone, Penguin Street, Udagawacho, Shibuya, Tokyo, 150-0042, Japan", "City": "Tokyo", "Country": "Japan", "Website": "http://www.cyclone1997.com/home.html", "Type": "venue", "Type_Public": "venue", "Food": "no", "Description": "They do metal shows. Check out their website.", "Review": "", "field_12": "", "field_13": "", "field_14": "", "field_15": "", "field_16": "", "field_17": "", "osm_type": "node", "display_name": "Shibuya Cyclone, Penguin Street, Udagawacho, Shibuya, Tokyo, 150-0042, Japan", "place_id": "355061084", "class": "amenity", "type_2": "bar", "road": "Penguin Street", "village": null, "city_district": null, "town": null, "city_2": "Shibuya", "state": null, "country_2": "Japan", "postcode": "150-0042" }, "geometry": { "type": "Point", "coordinates": [ 139.6985343, 35.6615022 ] } },
{ "type": "Feature", "properties": { "ID": "53", "Name": "Wild Side", "Address": "Wild Side, Yasukuni-dori, Sumiyoshicho, Shinjuku, Tokyo, 160-0022, Japan", "City": "Tokyo", "Country": "Japan", "Website": "https://ws-tokyo.com/events", "Type": "venue", "Type_Public": "venue", "Food": "no", "Description": "They do metal shows. Check out their website.", "Review": "", "field_12": "", "field_13": "", "field_14": "", "field_15": "", "field_16": "", "field_17": "", "osm_type": "node", "display_name": "Wild Side, Yasukuni-dori, Sumiyoshicho, Shinjuku, Tokyo, 160-0022, Japan", "place_id": "355061349", "class": "amenity", "type_2": "bar", "road": "Yasukuni-dori", "village": null, "city_district": null, "town": null, "city_2": "Shinjuku", "state": null, "country_2": "Japan", "postcode": "160-0022" }, "geometry": { "type": "Point", "coordinates": [ 139.7108677, 35.6913277 ] } },
{ "type": "Feature", "properties": { "ID": "54", "Name": "Esaka Muse", "Address": "Esaka Muse, 江坂ウエストサイドストリート, Toyotsucho, Suita, Osaka Prefecture, 564-0051, Japan", "City": "Osaka", "Country": "Japan", "Website": "http://muse-live.com/esaka/", "Type": "venue", "Type_Public": "venue", "Food": "no", "Description": "They do a wide range of concerts. Better check their website.", "Review": "", "field_12": "", "field_13": "", "field_14": "", "field_15": "", "field_16": "", "field_17": "", "osm_type": "node", "display_name": "Esaka Muse, 江坂ウエストサイドストリート, Toyotsucho, Suita, Osaka Prefecture, 564-0051, Japan", "place_id": "68057168", "class": "amenity", "type_2": "theatre", "road": "江坂ウエストサイドストリート", "village": null, "city_district": null, "town": null, "city_2": "Suita", "state": "Osaka Prefecture", "country_2": "Japan", "postcode": "564-0051" }, "geometry": { "type": "Point", "coordinates": [ 135.495631, 34.7589851 ] } },
{ "type": "Feature", "properties": { "ID": "55", "Name": "Bigtwin", "Address": "Big Twin Diner Panhead Shovel, 新屋敷筋, Nishi-Shinsaibashi 2-chome, Chuo, Osaka, Osaka Prefecture, 542-0086, Japan", "City": "Osaka", "Country": "Japan", "Website": "https://m.facebook.com/profile.php?id=1942354552712020", "Type": "venue", "Type_Public": "venue", "Food": "no", "Description": "They have a couple different floors/bars that do metal shows. One floor is called Panhead the other, Shovel.", "Review": "", "field_12": "", "field_13": "", "field_14": "", "field_15": "", "field_16": "", "field_17": "", "osm_type": "node", "display_name": "Big Twin Diner Panhead Shovel, 新屋敷筋, Nishi-Shinsaibashi 2-chome, Chuo, Osaka, Osaka Prefecture, 542-0086, Japan", "place_id": "355062138", "class": "amenity", "type_2": "theatre", "road": "新屋敷筋", "village": null, "city_district": null, "town": null, "city_2": "Osaka", "state": "Osaka Prefecture", "country_2": "Japan", "postcode": "542-0086" }, "geometry": { "type": "Point", "coordinates": [ 135.4997751, 34.6697447 ] } },
{ "type": "Feature", "properties": { "ID": "56", "Name": "Hokage", "Address": "Hokage, 三津寺筋, Nishi-Shinsaibashi 2-chome, Chuo, Osaka, Osaka Prefecture, 542-0086, Japan", "City": "Osaka", "Country": "Japan", "Website": "https://www.facebook.com/osakahokage/", "Type": "venue", "Type_Public": "venue", "Food": "no", "Description": "Showcasing the best in local/national/international punk, rock, hardcore and metal bands.", "Review": "", "field_12": "", "field_13": "", "field_14": "", "field_15": "", "field_16": "", "field_17": "", "osm_type": "node", "display_name": "Hokage, 三津寺筋, Nishi-Shinsaibashi 2-chome, Chuo, Osaka, Osaka Prefecture, 542-0086, Japan", "place_id": "355062839", "class": "amenity", "type_2": "theatre", "road": "三津寺筋", "village": null, "city_district": null, "town": null, "city_2": "Osaka", "state": "Osaka Prefecture", "country_2": "Japan", "postcode": "542-0086" }, "geometry": { "type": "Point", "coordinates": [ 135.499188, 34.6702718 ] } },
{ "type": "Feature", "properties": { "ID": "57", "Name": "Huck Finn", "Address": "Live House Huck Finn, 南四番通アカデミー通, 今池五丁目, Chikusa Ward, Nagoya, Aichi Prefecture, 464-0850, Japan", "City": "Nagoya", "Country": "Japan", "Website": "http://huckfinn.co.jp/top.html", "Type": "venue", "Type_Public": "venue", "Food": "no", "Description": "They have metal bands coming through. Check their website.", "Review": "", "field_12": "", "field_13": "", "field_14": "", "field_15": "", "field_16": "", "field_17": "", "osm_type": "node", "display_name": "Live House Huck Finn, 南四番通アカデミー通, 今池五丁目, Chikusa Ward, Nagoya, 464-0850, Japan", "place_id": "355062980", "class": "amenity", "type_2": "theatre", "road": "南四番通アカデミー通", "village": null, "city_district": null, "town": null, "city_2": "Nagoya", "state": null, "country_2": "Japan", "postcode": "464-0850" }, "geometry": { "type": "Point", "coordinates": [ 136.9390827, 35.1669299 ] } },
{ "type": "Feature", "properties": { "ID": "58", "Name": "Record Boy", "Address": "Record Boy, エトアール通り, Koenji-minami 3-chome, Koenji, Suginami, Tokyo, 166-0003, Japan", "City": "Tokyo", "Country": "Japan", "Website": "https://www.facebook.com/recordboyjapan/", "Type": "recordstore", "Type_Public": "recordstore", "Food": "no", "Description": "Metal and punk record shop.", "Review": "", "field_12": "", "field_13": "", "field_14": "", "field_15": "", "field_16": "", "field_17": "", "osm_type": "node", "display_name": "Record Boy, エトアール通り, Koenji-minami 3-chome, Koenji, Suginami, Tokyo, 166-0003, Japan", "place_id": "355063193", "class": "shop", "type_2": "music", "road": "エトアール通り", "village": null, "city_district": null, "town": null, "city_2": "Suginami", "state": null, "country_2": "Japan", "postcode": "166-0003" }, "geometry": { "type": "Point", "coordinates": [ 139.6487814, 35.7034941 ] } },
{ "type": "Feature", "properties": { "ID": "59", "Name": "Disk Union", "Address": "Mitsumine Building, メトロプロムナード, Shinjuku 3-chome, Shinjuku, Tokyo, 160-0022, Japan", "City": "Tokyo", "Country": "Japan", "Website": "https://m.facebook.com/profile.php?id=146408978748813", "Type": "recordstore", "Type_Public": "recordstore", "Food": "no", "Description": "They specialize in metal, rock and punk.", "Review": "", "field_12": "", "field_13": "", "field_14": "", "field_15": "", "field_16": "", "field_17": "", "osm_type": "way", "display_name": "Mitsumine Building, メトロプロムナード, Shinjuku 3-chome, Shinjuku, Tokyo, 160-0022, Japan", "place_id": "141283772", "class": "building", "type_2": "yes", "road": "メトロプロムナード", "village": null, "city_district": null, "town": null, "city_2": "Shinjuku", "state": null, "country_2": "Japan", "postcode": "160-0022" }, "geometry": { "type": "Point", "coordinates": [ 139.702765549746374, 35.6907991 ] } },
{ "type": "Feature", "properties": { "ID": "60", "Name": "Wild One", "Address": "Wild One, Kishu-kaido, Nipponbashi 3-chome, Naniwa Ward, Osaka, Osaka Prefecture, 556-0011, Japan", "City": "Osaka", "Country": "Japan", "Website": "https://www.facebook.com/WILDONEOSAKA/", "Type": "recordstore", "Type_Public": "recordstore", "Food": "no", "Description": "Specialize in metal and punk.", "Review": "", "field_12": "", "field_13": "", "field_14": "", "field_15": "", "field_16": "", "field_17": "", "osm_type": "node", "display_name": "Wild One, Kishu-kaido, Nipponbashi 3-chome, Naniwa Ward, Osaka, Osaka Prefecture, 556-0011, Japan", "place_id": "355064732", "class": "shop", "type_2": "music", "road": "Kishu-kaido", "village": null, "city_district": null, "town": null, "city_2": "Osaka", "state": "Osaka Prefecture", "country_2": "Japan", "postcode": "556-0011" }, "geometry": { "type": "Point", "coordinates": [ 135.504937500000011, 34.662541 ] } },
{ "type": "Feature", "properties": { "ID": "61", "Name": "Revenge", "Address": "Revenge, 南堀江立花通（オレンジストリート）, Minamihorie 2-chome, Nishi Ward, Osaka, Osaka Prefecture, 550-0015, Japan", "City": "Osaka", "Country": "Japan", "Website": "http://revenge-records.com/", "Type": "recordstore", "Type_Public": "recordstore", "Food": "no", "Description": "Punk and metal store.", "Review": "", "field_12": "", "field_13": "", "field_14": "", "field_15": "", "field_16": "", "field_17": "", "osm_type": "node", "display_name": "Revenge, 南堀江立花通（オレンジストリート）, Minamihorie 2-chome, Nishi Ward, Osaka, Osaka Prefecture, 550-0015, Japan", "place_id": "355065113", "class": "shop", "type_2": "music", "road": "南堀江立花通（オレンジストリート）", "village": null, "city_district": null, "town": null, "city_2": "Osaka", "state": "Osaka Prefecture", "country_2": "Japan", "postcode": "550-0015" }, "geometry": { "type": "Point", "coordinates": [ 135.49513, 34.6711061 ] } },
{ "type": "Feature", "properties": { "ID": "64", "Name": "Watts Music", "Address": "1211 Grant Ave Novato, CA 94945", "City": "Novato", "Country": "USA", "Website": "https://www.wattsmusicnovato.com/", "Type": "recordstore", "Type_Public": "recordstore", "Food": "no", "Description": "40+ year old record store. Chance for some hidden gems, possibly.", "Review": "", "field_12": "0", "field_13": "304914069", "field_14": "1211, Grant Avenue, Old Town, Novato, Marin County, CAL Fire Northern Region, California, 94945, United States", "field_15": "place", "field_16": "house", "field_17": "38.10797997485435,-122.57292493172389", "osm_type": "way", "display_name": "1211, Grant Avenue, Old Town, Novato, Marin County, CAL Fire Northern Region, California, 94945, United States", "place_id": "319645689", "class": "place", "type_2": "house", "road": "Grant Avenue", "village": null, "city_district": null, "town": "Novato", "city_2": null, "state": "California", "country_2": "United States", "postcode": "94945" }, "geometry": { "type": "Point", "coordinates": [ -122.57292493172389, 38.107979974854352 ] } },
{ "type": "Feature", "properties": { "ID": "62", "Name": "Creep Records", "Address": "1050 N Hancock St, Philadelphia, PA 19123", "City": "Philadelphia", "Country": "USA", "Website": "https://shopcreep.com/", "Type": "recordstore", "Type_Public": "recordstore", "Food": "no", "Description": "Creep Records is a brick-and-mortar record store in Philadelphia and West Chester, PA. We love music, art and great customer service!", "Review": "", "field_12": "", "field_13": "", "field_14": "", "field_15": "", "field_16": "", "field_17": "", "osm_type": "node", "display_name": "Crabby Cafe & Sports Bar, 1050, North Hancock Street, Northern Liberties, Philadelphia, Philadelphia County, Pennsylvania, 19123, United States", "place_id": "57791122", "class": "amenity", "type_2": "bar", "road": "North Hancock Street", "village": null, "city_district": null, "town": null, "city_2": "Philadelphia", "state": "Pennsylvania", "country_2": "United States", "postcode": "19123" }, "geometry": { "type": "Point", "coordinates": [ -75.1393076, 39.9660968 ] } },
{ "type": "Feature", "properties": { "ID": "63", "Name": "Creep Records", "Address": "133 W Gay St West Chester, PA 19380", "City": "Philadelphia", "Country": "USA", "Website": "https://shopcreep.com/", "Type": "recordstore", "Type_Public": "recordstore", "Food": "no", "Description": "Creep Records is a brick-and-mortar record store in Philadelphia and West Chester, PA. We love music, art and great customer service!", "Review": "", "field_12": "", "field_13": "", "field_14": "", "field_15": "", "field_16": "", "field_17": "", "osm_type": "way", "display_name": "133, West Gay Street, West Chester, Chester County, Pennsylvania, 19382, United States", "place_id": "66739895", "class": "place", "type_2": "house", "road": "West Gay Street", "village": null, "city_district": null, "town": "West Chester", "city_2": null, "state": "Pennsylvania", "country_2": "United States", "postcode": "19382" }, "geometry": { "type": "Point", "coordinates": [ -75.606962502040815, 39.959804581632653 ] } },
{ "type": "Feature", "properties": { "ID": "65", "Name": "Coffin Club", "Address": "421 SE Grand Ave Portland, OR 97214", "City": "Portland", "Country": "USA", "Website": "https://www.thecoffinclubpdx.com/", "Type": "venue", "Type_Public": "venue", "Food": "no", "Description": "Goth club and venue with a macabre/horror theme. They serve drinks too.", "Review": "", "field_12": "", "field_13": "", "field_14": "", "field_15": "", "field_16": "", "field_17": "", "osm_type": "way", "display_name": "Lovecraft Bar, 421, Southeast Grand Avenue, Central Eastside, Buckman, Portland, Multnomah County, Oregon, 97214, United States", "place_id": "169204350", "class": "amenity", "type_2": "bar", "road": "Southeast Grand Avenue", "village": null, "city_district": null, "town": null, "city_2": "Portland", "state": "Oregon", "country_2": "United States", "postcode": "97214" }, "geometry": { "type": "Point", "coordinates": [ -122.660960275076334, 45.51996515 ] } },
{ "type": "Feature", "properties": { "ID": "66", "Name": "Dantes", "Address": "350 W BURNSIDE ST, PORTLAND, OR, 97209", "City": "Portland", "Country": "USA", "Website": "https://www.danteslive.com/", "Type": "venue", "Type_Public": "venue", "Food": "no", "Description": "Chek their website for metal shows.", "Review": "", "field_12": "", "field_13": "", "field_14": "", "field_15": "", "field_16": "", "field_17": "", "osm_type": "node", "display_name": "Dante's, 350, West Burnside Street, Downtown, Portland, Multnomah County, Oregon, 97209, United States", "place_id": "68770542", "class": "amenity", "type_2": "nightclub", "road": "West Burnside Street", "village": null, "city_district": null, "town": null, "city_2": "Portland", "state": "Oregon", "country_2": "United States", "postcode": "97209" }, "geometry": { "type": "Point", "coordinates": [ -122.6736893, 45.5229433 ] } },
{ "type": "Feature", "properties": { "ID": "67", "Name": "Sala Razzmatazz", "Address": "Almogàvers 122 08018 Barcelona, Spain", "City": "Barcelona", "Country": "Spain", "Website": "https://www.salarazzmatazz.com/", "Type": "venue", "Type_Public": "venue", "Food": "no", "Description": "Chek their website for metal shows.", "Review": "", "field_12": "", "field_13": "", "field_14": "", "field_15": "", "field_16": "", "field_17": "", "osm_type": "node", "display_name": "122-124, Carrer dels Almogàvers, el Parc i la Llacuna del Poblenou, Sant Martí, Barcelona, Barcelonès, Barcelona, Catalonia, 08018, Spain", "place_id": "66341197", "class": "place", "type_2": "house", "road": "Carrer dels Almogàvers", "village": null, "city_district": "Sant Martí", "town": null, "city_2": "Barcelona", "state": "Catalonia", "country_2": "Spain", "postcode": "08018" }, "geometry": { "type": "Point", "coordinates": [ 2.1910699, 41.3977318 ] } },
{ "type": "Feature", "properties": { "ID": "68", "Name": "Le Transbordeur", "Address": "3 Bd de Stalingrad, 69100 Villeurbanne", "City": "Villeurbanne", "Country": "France", "Website": "https://www.transbordeur.fr/accueil/", "Type": "venue", "Type_Public": "venue", "Food": "no", "Description": "Chek their website for metal shows.", "Review": "", "field_12": "", "field_13": "", "field_14": "", "field_15": "", "field_16": "", "field_17": "", "osm_type": "way", "display_name": "Boulevard de Stalingrad, Tonkin, Villeurbanne, Lyon, Métropole de Lyon, Rhône, Auvergne-Rhône-Alpes, Metropolitan France, 69100, France", "place_id": "110028513", "class": "highway", "type_2": "primary", "road": "Boulevard de Stalingrad", "village": null, "city_district": null, "town": null, "city_2": "Villeurbanne", "state": "Auvergne-Rhône-Alpes", "country_2": "France", "postcode": "69100" }, "geometry": { "type": "Point", "coordinates": [ 4.8601623, 45.7841117 ] } },
{ "type": "Feature", "properties": { "ID": "69", "Name": "Artefact La Laiterie", "Address": "Rue du Hohwald 13 67000 Strasbourg", "City": "Strasbroug", "Country": "France", "Website": "https://www.artefact.org/", "Type": "venue", "Type_Public": "venue", "Food": "no", "Description": "Chek their website for metal shows.", "Review": "", "field_12": "", "field_13": "", "field_14": "", "field_15": "", "field_16": "", "field_17": "", "osm_type": "node", "display_name": "La Laiterie, 13, Rue du Hohwald, Montagne-Verte, Strasbourg, Bas-Rhin, Grand Est, Metropolitan France, 67000, France", "place_id": "15185357", "class": "amenity", "type_2": "music_venue", "road": "Rue du Hohwald", "village": null, "city_district": null, "town": null, "city_2": "Strasbourg", "state": "Grand Est", "country_2": "France", "postcode": "67000" }, "geometry": { "type": "Point", "coordinates": [ 7.7294181, 48.5759771 ] } },
{ "type": "Feature", "properties": { "ID": "70", "Name": "MHP Arena Ludwigsburg", "Address": "Schwieberdinger Straße 30 71638 Ludwigsburg, Germany", "City": "Ludwigsburg", "Country": "Germany", "Website": "https://mhparena.ludwigsburg.de/start", "Type": "venue", "Type_Public": "venue", "Food": "no", "Description": "Chek their website for metal shows.", "Review": "", "field_12": "", "field_13": "", "field_14": "", "field_15": "", "field_16": "", "field_17": "", "osm_type": "way", "display_name": "MHPArena, 30, Schwieberdinger Straße, Schafhof Garten, Ludwigsburg-West, Ludwigsburg, Landkreis Ludwigsburg, Baden-Württemberg, 71636, Germany", "place_id": "156351835", "class": "leisure", "type_2": "sports_centre", "road": "Schwieberdinger Straße", "village": null, "city_district": null, "town": "Ludwigsburg", "city_2": null, "state": "Baden-Württemberg", "country_2": "Germany", "postcode": "71636" }, "geometry": { "type": "Point", "coordinates": [ 9.182420157176971, 48.8911701 ] } },
{ "type": "Feature", "properties": { "ID": "71", "Name": "Sporthalle Hamburg", "Address": "Krochmannstraße 55 22297 Hamburg, Germany", "City": "Hamburg", "Country": "Germany", "Website": "www.hamburg-sporthalle.de/", "Type": "venue", "Type_Public": "venue", "Food": "no", "Description": "Chek their website for metal shows.", "Review": "", "field_12": "", "field_13": "", "field_14": "", "field_15": "", "field_16": "", "field_17": "", "osm_type": "way", "display_name": "Sporthalle Hamburg, 55, Krochmannstraße, Winterhude, Hamburg-Nord, Hamburg, 22297, Germany", "place_id": "114536180", "class": "leisure", "type_2": "sports_centre", "road": "Krochmannstraße", "village": null, "city_district": "Hamburg-Nord", "town": null, "city_2": "Hamburg", "state": null, "country_2": "Germany", "postcode": "22297" }, "geometry": { "type": "Point", "coordinates": [ 10.002062235896307, 53.60272475 ] } },
{ "type": "Feature", "properties": { "ID": "72", "Name": "Verti Music Hall Berlin", "Address": "Mercedes-Platz 1 10243 Berlin, Germany", "City": "Berlin", "Country": "Germany", "Website": "https://www.verti-music-hall.de/en/", "Type": "venue", "Type_Public": "venue", "Food": "no", "Description": "Chek their website for metal shows.", "Review": "", "field_12": "", "field_13": "", "field_14": "", "field_15": "", "field_16": "", "field_17": "", "osm_type": "way", "display_name": "Mercedes-Benz Arena, 1, Mercedes-Platz, Friedrichshain, Friedrichshain-Kreuzberg, Berlin, 10243, Germany", "place_id": "111286224", "class": "leisure", "type_2": "stadium", "road": null, "village": null, "city_district": null, "town": null, "city_2": "Berlin", "state": null, "country_2": "Germany", "postcode": "10243" }, "geometry": { "type": "Point", "coordinates": [ 13.443765151369332, 52.5063687 ] } },
{ "type": "Feature", "properties": { "ID": "73", "Name": "Barba Negra", "Address": "Prielle Kornélia 4. 1117 Budapest, Hungary", "City": "Budapest", "Country": "Hungary", "Website": "https://www.barbanegra.hu/", "Type": "venue", "Type_Public": "venue", "Food": "no", "Description": "Chek their website for metal shows.", "Review": "", "field_12": "", "field_13": "", "field_14": "", "field_15": "", "field_16": "", "field_17": "", "osm_type": "node", "display_name": "Systrans Kft, 4, Prielle Kornélia utca, Nádorliget-lakópark, Kelenföld, 11th district, Budapest, Central Hungary, 1117, Hungary", "place_id": "15311229", "class": "office", "type_2": "yes", "road": "Prielle Kornélia utca", "village": null, "city_district": null, "town": null, "city_2": "Budapest", "state": null, "country_2": "Hungary", "postcode": "1117" }, "geometry": { "type": "Point", "coordinates": [ 19.0469471, 47.4691221 ] } },
{ "type": "Feature", "properties": { "ID": "74", "Name": "Planet", "Address": "Guglgasse 8 1110 Vienna, Austria", "City": "Vienne", "Country": "Austria", "Website": "http://planet.tt/", "Type": "venue", "Type_Public": "venue", "Food": "no", "Description": "Chek their website for metal shows.", "Review": "", "field_12": "", "field_13": "", "field_14": "", "field_15": "", "field_16": "", "field_17": "", "osm_type": "node", "display_name": "8, Guglgasse, KG Landstraße, Simmering, Vienna, 1110, Austria", "place_id": "79909155", "class": "amenity", "type_2": "bicycle_parking", "road": "Guglgasse", "village": null, "city_district": "Simmering", "town": null, "city_2": "Vienna", "state": null, "country_2": "Austria", "postcode": "1110" }, "geometry": { "type": "Point", "coordinates": [ 16.4196906, 48.1848234 ] } },
{ "type": "Feature", "properties": { "ID": "75", "Name": "Zenith Kulturhalle München", "Address": "Lilienthalallee 29 80939 Munich, Germany", "City": "München", "Country": "Germany", "Website": "https://www.zenith-die-kulturhalle.de/", "Type": "venue", "Type_Public": "venue", "Food": "no", "Description": "Chek their website for metal shows.", "Review": "", "field_12": "", "field_13": "", "field_14": "", "field_15": "", "field_16": "", "field_17": "", "osm_type": "way", "display_name": "Zenith Kulturhalle, 29, Lilienthalallee, Freimann, Schwabing-Freimann, Munich, Bavaria, 80939, Germany", "place_id": "160036519", "class": "amenity", "type_2": "arts_centre", "road": "Lilienthalallee", "village": null, "city_district": "Schwabing-Freimann", "town": null, "city_2": "Munich", "state": "Bavaria", "country_2": "Germany", "postcode": "80939" }, "geometry": { "type": "Point", "coordinates": [ 11.6078535, 48.1946864 ] } },
{ "type": "Feature", "properties": { "ID": "76", "Name": "the Hall", "Address": "Hoffnigstrasse 1 8600 Dubendorf, Switzerland", "City": "Dubendorf", "Country": "Switzerland", "Website": "https://www.thehall.ch/en", "Type": "venue", "Type_Public": "venue", "Food": "no", "Description": "Chek their website for metal shows.", "Review": "", "field_12": "", "field_13": "", "field_14": "", "field_15": "", "field_16": "", "field_17": "", "osm_type": "node", "display_name": "ICF Zürich, 1, Hoffnigstrasse, Kämmaten, Stettbach, Dübendorf, Bezirk Uster, Zurich, 8600, Switzerland", "place_id": "344669692", "class": "amenity", "type_2": "place_of_worship", "road": "Hoffnigstrasse", "village": "Stettbach", "city_district": null, "town": "Dübendorf", "city_2": null, "state": "Zurich", "country_2": "Switzerland", "postcode": "8600" }, "geometry": { "type": "Point", "coordinates": [ 8.5978801, 47.3958426 ] } },
{ "type": "Feature", "properties": { "ID": "77", "Name": "Alcatraz Milano", "Address": "Via Valtellina 25 20159 Milan", "City": "Milan", "Country": "Italy", "Website": "https://alcatrazmilano.it/", "Type": "venue", "Type_Public": "venue", "Food": "no", "Description": "Chek their website for metal shows.", "Review": "", "field_12": "", "field_13": "", "field_14": "", "field_15": "", "field_16": "", "field_17": "", "osm_type": "way", "display_name": "Alcatraz, 25, Via Valtellina, Isola, Municipio 9, Milan, Lombardy, 20159, Italy", "place_id": "250069459", "class": "amenity", "type_2": "nightclub", "road": "Via Valtellina", "village": null, "city_district": null, "town": null, "city_2": "Milan", "state": "Lombardy", "country_2": "Italy", "postcode": "20159" }, "geometry": { "type": "Point", "coordinates": [ 9.182376784928799, 45.49474395 ] } },
{ "type": "Feature", "properties": { "ID": "78", "Name": "myticket Jahrhunderthalle", "Address": "Pfaffenwiese 301 65929 Frankfurt am Main", "City": "Frankfurt", "Country": "Germany", "Website": "https://www.myticket-jahrhunderthalle.de/", "Type": "venue", "Type_Public": "venue", "Food": "no", "Description": "Chek their website for metal shows.", "Review": "", "field_12": "", "field_13": "", "field_14": "", "field_15": "", "field_16": "", "field_17": "", "osm_type": "way", "display_name": "Jahrhunderthalle, 301, Pfaffenwiese, Unterliederbach, West, Frankfurt, Hesse, 65929, Germany", "place_id": "103681127", "class": "amenity", "type_2": "theatre", "road": "Pfaffenwiese", "village": null, "city_district": "West", "town": null, "city_2": "Frankfurt", "state": "Hesse", "country_2": "Germany", "postcode": "65929" }, "geometry": { "type": "Point", "coordinates": [ 8.5189652, 50.0994964 ] } },
{ "type": "Feature", "properties": { "ID": "79", "Name": "Electric Ballroom", "Address": "Camden High Street 184 NW1 8QL London", "City": "London", "Country": "UK", "Website": "www.electricballroom.co.uk/", "Type": "venue", "Type_Public": "venue", "Food": "no", "Description": "Chek their website for metal shows.", "Review": "", "field_12": "", "field_13": "", "field_14": "", "field_15": "", "field_16": "", "field_17": "", "osm_type": "way", "display_name": "Electric Ballroom, 184, Camden High Street, Chalk Farm, London Borough of Camden, London, Greater London, England, NW1 8QL, United Kingdom", "place_id": "206832887", "class": "amenity", "type_2": "nightclub", "road": "Camden High Street", "village": null, "city_district": "London Borough of Camden", "town": null, "city_2": "London", "state": "England", "country_2": "United Kingdom", "postcode": "NW1 8QL" }, "geometry": { "type": "Point", "coordinates": [ -0.142943004397234, 51.53972445 ] } },
{ "type": "Feature", "properties": { "ID": "80", "Name": "the FIllmore, the Underground", "Address": "820 Hamilton Street  Charlotte, NC 28206", "City": "Charlotte", "Country": "USA", "Website": "https://www.livenation.com/venue/KovZpaFEre/the-fillmore-charlotte-events", "Type": "venue", "Type_Public": "venue", "Food": "no", "Description": "Chek their website for metal shows.", "Review": "", "field_12": "", "field_13": "", "field_14": "", "field_15": "", "field_16": "", "field_17": "", "osm_type": "way", "display_name": "The Underground;The Fillmore, 820, Hamilton Street, Fourth Ward, Uptown, Charlotte, Mecklenburg County, North Carolina, 28206, United States", "place_id": "282626837", "class": "amenity", "type_2": "nightclub", "road": "Hamilton Street", "village": null, "city_district": null, "town": null, "city_2": "Charlotte", "state": "North Carolina", "country_2": "United States", "postcode": "28206" }, "geometry": { "type": "Point", "coordinates": [ -80.845098060127896, 35.239274 ] } },
{ "type": "Feature", "properties": { "ID": "81", "Name": "Hooligans Live", "Address": "2620 Onslow Drive Jacksonville, NC 28540", "City": "Jacksonville", "Country": "USA", "Website": "https://hooliganslive.com/", "Type": "venue", "Type_Public": "venue", "Food": "no", "Description": "Chek their website for metal shows.", "Review": "", "field_12": "", "field_13": "", "field_14": "", "field_15": "", "field_16": "", "field_17": "", "osm_type": "way", "display_name": "2620, Onslow Drive, Forest Grove, Jacksonville, Onslow County, North Carolina, 28540, United States", "place_id": "326719807", "class": "place", "type_2": "house", "road": "Onslow Drive", "village": null, "city_district": null, "town": null, "city_2": "Jacksonville", "state": "North Carolina", "country_2": "United States", "postcode": "28540" }, "geometry": { "type": "Point", "coordinates": [ -77.420506970588235, 34.764617058823532 ] } },
{ "type": "Feature", "properties": { "ID": "82", "Name": "Canal Club", "Address": "East Cary Street 1545 23219 Richmond", "City": "Richmond", "Country": "USA", "Website": "https://thecanalclub.com/", "Type": "venue", "Type_Public": "venue", "Food": "no", "Description": "Chek their website for metal shows.", "Review": "", "field_12": "", "field_13": "", "field_14": "", "field_15": "", "field_16": "", "field_17": "", "osm_type": "way", "display_name": "The Canal Club, 1545, East Cary Street, Shockoe Bottom, Richmond, Virginia, 23219, United States", "place_id": "155179301", "class": "amenity", "type_2": "restaurant", "road": "East Cary Street", "village": null, "city_district": null, "town": null, "city_2": "Richmond", "state": "Virginia", "country_2": "United States", "postcode": "23219" }, "geometry": { "type": "Point", "coordinates": [ -77.429644, 37.53256295 ] } },
{ "type": "Feature", "properties": { "ID": "83", "Name": "Baltimore Soundstage", "Address": "124 Market Place 21202 Baltimore, MD", "City": "Baltimore", "Country": "USA", "Website": "https://www.baltimoresoundstage.com/", "Type": "venue", "Type_Public": "venue", "Food": "no", "Description": "Chek their website for metal shows.", "Review": "", "field_12": "", "field_13": "", "field_14": "", "field_15": "", "field_16": "", "field_17": "", "osm_type": "way", "display_name": "Lockwood Place Garage, 124, Market Place, Inner Harbor, Downtown, Baltimore, Maryland, 21202, United States", "place_id": "147721486", "class": "amenity", "type_2": "parking", "road": "Market Place", "village": null, "city_district": null, "town": null, "city_2": "Baltimore", "state": "Maryland", "country_2": "United States", "postcode": "21202" }, "geometry": { "type": "Point", "coordinates": [ -76.607432949381973, 39.2875658 ] } },
{ "type": "Feature", "properties": { "ID": "84", "Name": "Brooklyn Bowl Philadelphia", "Address": "1009 Canal Street, Philadelphia, Pennsylvania ", "City": "Philadelphia", "Country": "USA", "Website": "https://www.brooklynbowl.com/philadelphia", "Type": "venue", "Type_Public": "venue", "Food": "no", "Description": "Chek their website for metal shows.", "Review": "", "field_12": "", "field_13": "", "field_14": "", "field_15": "", "field_16": "", "field_17": "", "osm_type": "way", "display_name": "1009, Canal Street, Northern Liberties, Philadelphia, Philadelphia County, Pennsylvania, 19123, United States", "place_id": "304107920", "class": "place", "type_2": "house", "road": "Canal Street", "village": null, "city_district": null, "town": null, "city_2": "Philadelphia", "state": "Pennsylvania", "country_2": "United States", "postcode": "19123" }, "geometry": { "type": "Point", "coordinates": [ -75.134858632653064, 39.964898408163265 ] } },
{ "type": "Feature", "properties": { "ID": "85", "Name": "Irving Plaza", "Address": "17 Irving Place 10003 New York, New York", "City": "New York City", "Country": "USA", "Website": "https://www.livenation.com/venue/KovZpaFPje/irving-plaza-events", "Type": "venue", "Type_Public": "venue", "Food": "no", "Description": "Chek their website for metal shows.", "Review": "", "field_12": "", "field_13": "", "field_14": "", "field_15": "", "field_16": "", "field_17": "", "osm_type": "node", "display_name": "Irving Plaza, 17, Irving Place, Manhattan Community Board 5, Manhattan, New York County, New York, 10003, United States", "place_id": "23389114", "class": "amenity", "type_2": "theatre", "road": "Irving Place", "village": null, "city_district": null, "town": null, "city_2": "New York", "state": "New York", "country_2": "United States", "postcode": "10003" }, "geometry": { "type": "Point", "coordinates": [ -73.9882699, 40.7349099 ] } },
{ "type": "Feature", "properties": { "ID": "86", "Name": "The Middle East", "Address": "472 Massachusetts Ave, Cambridge, MA 02139", "City": "Cambridge", "Country": "USA", "Website": "https://www.mideastoffers.com/", "Type": "venue", "Type_Public": "venue", "Food": "no", "Description": "Chek their website for metal shows.", "Review": "", "field_12": "", "field_13": "", "field_14": "", "field_15": "", "field_16": "", "field_17": "", "osm_type": "node", "display_name": "The Middle East Upstairs, 472, Massachusetts Avenue, Central Square, Cambridgeport, Cambridge, Middlesex County, Massachusetts, 02139, United States", "place_id": "15505838", "class": "amenity", "type_2": "restaurant", "road": "Massachusetts Avenue", "village": null, "city_district": null, "town": null, "city_2": "Cambridge", "state": "Massachusetts", "country_2": "United States", "postcode": "02139" }, "geometry": { "type": "Point", "coordinates": [ -71.1013224, 42.3637705 ] } },
{ "type": "Feature", "properties": { "ID": "87", "Name": "The Phoenix Concert Theatre", "Address": "410 Sherbourne St, Toronto, ON", "City": "Toronto", "Country": "Canada", "Website": "https://thephoenixconcerttheatre.com/", "Type": "venue", "Type_Public": "venue", "Food": "no", "Description": "Chek their website for metal shows.", "Review": "", "field_12": "", "field_13": "", "field_14": "", "field_15": "", "field_16": "", "field_17": "", "osm_type": "node", "display_name": "Main Drug Mart, 410, Sherbourne Street, Toronto Centre, Old Toronto, Toronto, Golden Horseshoe, Ontario, M5A 2S3, Canada", "place_id": "3045881", "class": "amenity", "type_2": "pharmacy", "road": "Sherbourne Street", "village": null, "city_district": null, "town": null, "city_2": "Old Toronto", "state": "Ontario", "country_2": "Canada", "postcode": "M5A 2S3" }, "geometry": { "type": "Point", "coordinates": [ -79.3740248, 43.664693 ] } },
{ "type": "Feature", "properties": { "ID": "88", "Name": "The Metro", "Address": "3730 N Clark St, Chicago, IL 60613", "City": "Chicago", "Country": "USA", "Website": "https://metrochicago.com/", "Type": "venue", "Type_Public": "venue", "Food": "no", "Description": "Chek their website for metal shows.", "Review": "", "field_12": "", "field_13": "", "field_14": "", "field_15": "", "field_16": "", "field_17": "", "osm_type": "way", "display_name": "Metro, 3728-3730, North Clark Street, Wrigleyville, Lake View, Chicago, Lake View Township, Cook County, Illinois, 60613, United States", "place_id": "140539390", "class": "building", "type_2": "yes", "road": "North Clark Street", "village": null, "city_district": null, "town": null, "city_2": "Chicago", "state": "Illinois", "country_2": "United States", "postcode": "60613" }, "geometry": { "type": "Point", "coordinates": [ -87.65895863378384, 41.9498495 ] } },
{ "type": "Feature", "properties": { "ID": "89", "Name": "Fine Line", "Address": "318 1st Ave North 55401 Minneapolis", "City": "Minneapolis", "Country": "USA", "Website": "https://first-avenue.com/venue/fine-line", "Type": "venue", "Type_Public": "venue", "Food": "no", "Description": "Chek their website for metal shows.", "Review": "", "field_12": "", "field_13": "", "field_14": "", "field_15": "", "field_16": "", "field_17": "", "osm_type": "way", "display_name": "Fine Line, 318, 1st Avenue North, Minneapolis, Hennepin County, Minnesota, 55401, United States", "place_id": "118212122", "class": "amenity", "type_2": "music_venue", "road": "1st Avenue North", "village": null, "city_district": null, "town": null, "city_2": "Minneapolis", "state": "Minnesota", "country_2": "United States", "postcode": "55401" }, "geometry": { "type": "Point", "coordinates": [ -93.27239178897301, 44.98176355 ] } },
{ "type": "Feature", "properties": { "ID": "90", "Name": "Gothic Theatre", "Address": "3263 S Broadway, Englewood, CO 80113", "City": "Englewood", "Country": "USA", "Website": "https://www.gothictheatre.com/", "Type": "venue", "Type_Public": "venue", "Food": "no", "Description": "Chek their website for metal shows.", "Review": "", "field_12": "", "field_13": "", "field_14": "", "field_15": "", "field_16": "", "field_17": "", "osm_type": "way", "display_name": "Gothic Theatre, 3263, South Broadway, Englewood, Arapahoe County, Colorado, 80113, United States", "place_id": "177630367", "class": "amenity", "type_2": "theatre", "road": "South Broadway", "village": null, "city_district": null, "town": "Englewood", "city_2": null, "state": "Colorado", "country_2": "United States", "postcode": "80113" }, "geometry": { "type": "Point", "coordinates": [ -104.9880211, 39.6576702 ] } },
{ "type": "Feature", "properties": { "ID": "91", "Name": "The Complex", "Address": "100 South 536 West 84101 Salt Lake City", "City": "Salt Lake City", "Country": "USA", "Website": "http://www.thecomplexslc.com/", "Type": "venue", "Type_Public": "venue", "Food": "no", "Description": "Chek their website for metal shows.", "Review": "", "field_12": "", "field_13": "", "field_14": "", "field_15": "", "field_16": "", "field_17": "", "osm_type": null, "display_name": null, "place_id": null, "class": null, "type_2": null, "road": null, "village": null, "city_district": null, "town": null, "city_2": null, "state": null, "country_2": null, "postcode": null }, "geometry": null },
{ "type": "Feature", "properties": { "ID": "92", "Name": "El Corazon", "Address": "109 Eastlake Ave E, Seattle, WA 98109", "City": "Seattle", "Country": "USA", "Website": "www.elcorazonseattle.com", "Type": "venue", "Type_Public": "venue", "Food": "no", "Description": "Chek their website for metal shows.", "Review": "", "field_12": "", "field_13": "", "field_14": "", "field_15": "", "field_16": "", "field_17": "", "osm_type": "node", "display_name": "El Corazón, 109, Eastlake Avenue East, South Lake Union, First Hill, Seattle, King County, Washington, 98109, United States", "place_id": "6331467", "class": "amenity", "type_2": "nightclub", "road": "Eastlake Avenue East", "village": null, "city_district": null, "town": null, "city_2": "Seattle", "state": "Washington", "country_2": "United States", "postcode": "98109" }, "geometry": { "type": "Point", "coordinates": [ -122.3293843, 47.6188258 ] } },
{ "type": "Feature", "properties": { "ID": "93", "Name": "The Hawthorne Theatre", "Address": "1507 SE 39th Ave, Portland, OR 97214", "City": "Portland", "Country": "USA", "Website": "https://hawthornetheatre.com/", "Type": "venue", "Type_Public": "venue", "Food": "no", "Description": "Chek their website for metal shows.", "Review": "", "field_12": "", "field_13": "", "field_14": "", "field_15": "", "field_16": "", "field_17": "", "osm_type": "way", "display_name": "Hawthorne Theatre, 1507, Southeast César E. Chávez Boulevard, Richmond, Portland, Multnomah County, Oregon, 97214, United States", "place_id": "115733413", "class": "amenity", "type_2": "theatre", "road": "Southeast César E. Chávez Boulevard", "village": null, "city_district": null, "town": null, "city_2": "Portland", "state": "Oregon", "country_2": "United States", "postcode": "97214" }, "geometry": { "type": "Point", "coordinates": [ -122.623146290904572, 45.5117651 ] } },
{ "type": "Feature", "properties": { "ID": "94", "Name": "Fonda Theatre", "Address": "6126 Hollywood Blvd, Los Angeles, CA 90028", "City": "Los Angeles", "Country": "USA", "Website": "www.fondatheatre.com/", "Type": "venue", "Type_Public": "venue", "Food": "no", "Description": "Chek their website for metal shows.", "Review": "", "field_12": "", "field_13": "", "field_14": "", "field_15": "", "field_16": "", "field_17": "", "osm_type": "way", "display_name": "Henry Fonda Theater, 6126, Hollywood Boulevard, Hollywood, Los Angeles, Los Angeles County, CAL Fire Southern Region, California, 90028, United States", "place_id": "201830926", "class": "amenity", "type_2": "theatre", "road": "Hollywood Boulevard", "village": null, "city_district": null, "town": null, "city_2": "Los Angeles", "state": "California", "country_2": "United States", "postcode": "90028" }, "geometry": { "type": "Point", "coordinates": [ -118.323253377828664, 34.10127845 ] } },
{ "type": "Feature", "properties": { "ID": "95", "Name": "Nile Theater", "Address": "105 W Main St, Mesa, AZ 85210", "City": "Mesa", "Country": "USA", "Website": "https://www.theniletheater.com/", "Type": "venue", "Type_Public": "venue", "Food": "no", "Description": "Chek their website for metal shows.", "Review": "", "field_12": "", "field_13": "", "field_14": "", "field_15": "", "field_16": "", "field_17": "", "osm_type": "way", "display_name": "105, West Main Street, Mesa, Maricopa County, Arizona, 85201, United States", "place_id": "334165162", "class": "place", "type_2": "house", "road": "West Main Street", "village": null, "city_district": null, "town": null, "city_2": "Mesa", "state": "Arizona", "country_2": "United States", "postcode": "85201" }, "geometry": { "type": "Point", "coordinates": [ -111.834322755102036, 33.415027204081632 ] } },
{ "type": "Feature", "properties": { "ID": "96", "Name": "Mohwak", "Address": "912 Red River St, Austin, TX 78701", "City": "Austin", "Country": "USA", "Website": "https://mohawkaustin.com/", "Type": "venue", "Type_Public": "venue", "Food": "no", "Description": "Chek their website for metal shows.", "Review": "", "field_12": "", "field_13": "", "field_14": "", "field_15": "", "field_16": "", "field_17": "", "osm_type": "way", "display_name": "Mohawk, 912, Red River Street, Medical District, Austin, Travis County, Texas, 78701, United States", "place_id": "194044377", "class": "building", "type_2": "yes", "road": "Red River Street", "village": null, "city_district": null, "town": null, "city_2": "Austin", "state": "Texas", "country_2": "United States", "postcode": "78701" }, "geometry": { "type": "Point", "coordinates": [ -97.73608281635174, 30.270046 ] } },
{ "type": "Feature", "properties": { "ID": "97", "Name": "Granada Theater", "Address": "3524 Greenville Ave, Dallas, TX 75206", "City": "Dallas", "Country": "USA", "Website": "https://www.granadatheater.com/", "Type": "venue", "Type_Public": "venue", "Food": "no", "Description": "Chek their website for metal shows.", "Review": "", "field_12": "", "field_13": "", "field_14": "", "field_15": "", "field_16": "", "field_17": "", "osm_type": "way", "display_name": "The Granada Theater, 3524, Greenville Avenue, Dallas, Dallas County, Texas, 75206, United States", "place_id": "209454502", "class": "amenity", "type_2": "theatre", "road": "Greenville Avenue", "village": null, "city_district": null, "town": null, "city_2": "Dallas", "state": "Texas", "country_2": "United States", "postcode": "75206" }, "geometry": { "type": "Point", "coordinates": [ -96.769790694809188, 32.8308782 ] } },
{ "type": "Feature", "properties": { "ID": "98", "Name": "White Oak Music Hall", "Address": "2915 N Main St, Houston, TX 77009", "City": "Houston", "Country": "USA", "Website": "https://www.whiteoakmusichall.com/", "Type": "venue", "Type_Public": "venue", "Food": "no", "Description": "Chek their website for metal shows.", "Review": "", "field_12": "", "field_13": "", "field_14": "", "field_15": "", "field_16": "", "field_17": "", "osm_type": "way", "display_name": "White Oak Music Hall, 2915, North Main Street, Houston, Harris County, Texas, 77009, United States", "place_id": "252403531", "class": "amenity", "type_2": "nightclub", "road": "North Main Street", "village": null, "city_district": null, "town": null, "city_2": "Houston", "state": "Texas", "country_2": "United States", "postcode": "77009" }, "geometry": { "type": "Point", "coordinates": [ -95.366874766669085, 29.78589275 ] } },
{ "type": "Feature", "properties": { "ID": "99", "Name": "The Rave/Eagle Ballroom", "Address": "2401 W Wisconsin Ave, Milwaukee, WI 53233", "City": "Milwaukee", "Country": "USA", "Website": "https://www.therave.com/main.asp", "Type": "venue", "Type_Public": "venue", "Food": "no", "Description": "Chek their website for metal shows.", "Review": "", "field_12": "", "field_13": "", "field_14": "", "field_15": "", "field_16": "", "field_17": "", "osm_type": "way", "display_name": "The Rave/Eagles Club, 2401, West Wisconsin Avenue, Avenues West, Milwaukee, Milwaukee County, Wisconsin, 53233, United States", "place_id": "224865808", "class": "amenity", "type_2": "arts_centre", "road": "West Wisconsin Avenue", "village": null, "city_district": null, "town": null, "city_2": "Milwaukee", "state": "Wisconsin", "country_2": "United States", "postcode": "53233" }, "geometry": { "type": "Point", "coordinates": [ -87.943319126238208, 43.03792185 ] } },
{ "type": "Feature", "properties": { "ID": "100", "Name": "Mercury Ballroom", "Address": "611 S 4th St, Louisville, KY 40202", "City": "Louisville", "Country": "USA", "Website": "https://www.livenation.com/venue/KovZpZAEk7EA/mercury-ballroom-events", "Type": "venue", "Type_Public": "venue", "Food": "no", "Description": "Chek their website for metal shows.", "Review": "", "field_12": "", "field_13": "", "field_14": "", "field_15": "", "field_16": "", "field_17": "", "osm_type": "way", "display_name": "The Mercury Ballroom, 611, South 4th Street, Louisville, Jefferson County, Kentucky, 40202, United States", "place_id": "185736629", "class": "amenity", "type_2": "events_venue", "road": "South 4th Street", "village": null, "city_district": null, "town": null, "city_2": "Louisville", "state": "Kentucky", "country_2": "United States", "postcode": "40202" }, "geometry": { "type": "Point", "coordinates": [ -85.757694496460473, 38.24844045 ] } },
{ "type": "Feature", "properties": { "ID": "101", "Name": "Alcatraz Festival", "Address": "Kortrijk", "City": "Kortrijk", "Country": "Belgium", "Website": "https://www.alcatraz.be/en/", "Type": "festival", "Type_Public": "festival", "Food": "yes", "Description": "Chek their website for dates, information and exact location!", "Review": "", "field_12": "", "field_13": "", "field_14": "", "field_15": "", "field_16": "", "field_17": "", "osm_type": "relation", "display_name": "Kortrijk, West Flanders, Flanders, Belgium", "place_id": "298199900", "class": "boundary", "type_2": "administrative", "road": null, "village": null, "city_district": null, "town": null, "city_2": "Kortrijk", "state": "West Flanders", "country_2": "Belgium", "postcode": null }, "geometry": { "type": "Point", "coordinates": [ 3.2659884, 50.8276429 ] } },
{ "type": "Feature", "properties": { "ID": "102", "Name": "Dynamo Festival", "Address": "Antoon Coolenlaan 3, Eindhoven", "City": "Eindhoven", "Country": "Holland", "Website": "https://www.dynamo-metalfest.nl/", "Type": "festival", "Type_Public": "festival", "Food": "yes", "Description": "Chek their website for dates, information and exact location!", "Review": "", "field_12": "", "field_13": "", "field_14": "", "field_15": "", "field_16": "", "field_17": "", "osm_type": "node", "display_name": "IJssportcentrum Eindhoven, 3, Antoon Coolenlaan, Bennekel-Oost, Gestel, Eindhoven, North Brabant, Netherlands, 5644 RX, Netherlands", "place_id": "26398286", "class": "leisure", "type_2": "ice_rink", "road": "Antoon Coolenlaan", "village": null, "city_district": null, "town": null, "city_2": "Eindhoven", "state": "North Brabant", "country_2": "Netherlands", "postcode": "5644 RX" }, "geometry": { "type": "Point", "coordinates": [ 5.4717867, 51.4156716 ] } },
{ "type": "Feature", "properties": { "ID": "103", "Name": "Colos Saal", "Address": "Rossmarkt 19 63739 Aschaffenburg, Germany", "City": "Aschaffenburg", "Country": "Germany", "Website": "www.colos-saal.de/", "Type": "venue", "Type_Public": "venue", "Food": "no", "Description": "Chek their website for metal shows.", "Review": "", "field_12": "", "field_13": "", "field_14": "", "field_15": "", "field_16": "", "field_17": "", "osm_type": "node", "display_name": "Colos-Saal, 19, Roßmarkt, City, Stadtmitte, Aschaffenburg, Bavaria, 63739, Germany", "place_id": "802558", "class": "amenity", "type_2": "nightclub", "road": "Roßmarkt", "village": null, "city_district": null, "town": "Aschaffenburg", "city_2": null, "state": "Bavaria", "country_2": "Germany", "postcode": "63739" }, "geometry": { "type": "Point", "coordinates": [ 9.1491725, 49.9758274 ] } },
{ "type": "Feature", "properties": { "ID": "104", "Name": "Wacken Open Air Festival", "Address": "Wacken", "City": "Wacken", "Country": "Germany", "Website": "https://www.wacken.com/en/", "Type": "festival", "Type_Public": "festival", "Food": "yes", "Description": "Chek their website for dates, information and exact location!", "Review": "", "field_12": "", "field_13": "", "field_14": "", "field_15": "", "field_16": "", "field_17": "", "osm_type": "relation", "display_name": "Wacken, Amt Schenefeld, Kreis Steinburg, Schleswig-Holstein, 25596, Germany", "place_id": "298284354", "class": "boundary", "type_2": "administrative", "road": null, "village": null, "city_district": null, "town": null, "city_2": null, "state": "Schleswig-Holstein", "country_2": "Germany", "postcode": "25596" }, "geometry": { "type": "Point", "coordinates": [ 9.375352, 54.0223299 ] } },
{ "type": "Feature", "properties": { "ID": "105", "Name": "Musigburg", "Address": "Bahnhofstrasse 50, 4663 Aarburg, Switzerland", "City": "Aarburg", "Country": "Switzerland", "Website": "https://musigburg.ch/", "Type": "venue", "Type_Public": "venue", "Food": "no", "Description": "Chek their website for metal shows.", "Review": "", "field_12": "", "field_13": "", "field_14": "", "field_15": "", "field_16": "", "field_17": "", "osm_type": "way", "display_name": "Bahnhofstrasse, Aarburg, Bezirk Zofingen, Aargau, 4663, Switzerland", "place_id": "110198975", "class": "highway", "type_2": "primary", "road": "Bahnhofstrasse", "village": "Aarburg", "city_district": null, "town": null, "city_2": null, "state": "Aargau", "country_2": "Switzerland", "postcode": "4663" }, "geometry": { "type": "Point", "coordinates": [ 7.906703949648366, 47.3204941 ] } },
{ "type": "Feature", "properties": { "ID": "106", "Name": "Weltkunstzimmer", "Address": "Ronsdorfer Straße 77A 40233 Düsseldorf", "City": "Düsseldorf", "Country": "Germany", "Website": "https://weltkunstzimmer.de/", "Type": "venue", "Type_Public": "venue", "Food": "no", "Description": "Chek their website for metal shows.", "Review": "", "field_12": "", "field_13": "", "field_14": "", "field_15": "", "field_16": "", "field_17": "", "osm_type": "node", "display_name": "Musikzimmer, 77a, Ronsdorfer Straße, Flingern Süd, Stadtbezirk 2, Dusseldorf, North Rhine-Westphalia, 40233, Germany", "place_id": "39190431", "class": "office", "type_2": "organization", "road": "Ronsdorfer Straße", "village": null, "city_district": "Stadtbezirk 2", "town": null, "city_2": "Dusseldorf", "state": "North Rhine-Westphalia", "country_2": "Germany", "postcode": "40233" }, "geometry": { "type": "Point", "coordinates": [ 6.8186534, 51.2179519 ] } },
{ "type": "Feature", "properties": { "ID": "107", "Name": "Brutal Assault Festival", "Address": "Okružní 34 55101 Jaroměř, Czech Republic", "City": "Jaroměř", "Country": "Czech Republic", "Website": "https://brutalassault.cz/en/", "Type": "festival", "Type_Public": "festival", "Food": "yes", "Description": "Chek their website for dates, information and exact location!", "Review": "", "field_12": "", "field_13": "", "field_14": "", "field_15": "", "field_16": "", "field_17": "", "osm_type": "node", "display_name": "Pokladna, Suvenýry Pevnost Josefov, 34, Okružní, Josefov u Jaroměře, Josefov, Jaroměř, okres Náchod, Královéhradecký kraj, Northeast, 551 02, Czechia", "place_id": "5276837", "class": "shop", "type_2": "gift", "road": "Okružní", "village": "Josefov", "city_district": null, "town": "Jaroměř", "city_2": null, "state": "Northeast", "country_2": "Czechia", "postcode": "551 02" }, "geometry": { "type": "Point", "coordinates": [ 15.9250488, 50.3384225 ] } },
{ "type": "Feature", "properties": { "ID": "109", "Name": "United Arts Festival", "Address": "Pokoleń Lechii Gdańsk 1 80-560 Gdansk, Poland ", "City": "Gdansk", "Country": "Poland", "Website": "https://polsatplusarenagdansk.pl/", "Type": "festival", "Type_Public": "festival", "Food": "no", "Description": "Chek their website for dates, information and exact location!", "Review": "", "field_12": "", "field_13": "", "field_14": "", "field_15": "", "field_16": "", "field_17": "", "osm_type": "relation", "display_name": "Polsat Plus Arena Gdańsk, 1, Pokoleń Lechii Gdańsk, Letnica, Gdansk, Pomeranian Voivodeship, 80-560, Poland", "place_id": "299683555", "class": "tourism", "type_2": "attraction", "road": "Pokoleń Lechii Gdańsk", "village": null, "city_district": "Gdansk", "town": null, "city_2": "Gdansk", "state": "Pomeranian Voivodeship", "country_2": "Poland", "postcode": "80-560" }, "geometry": { "type": "Point", "coordinates": [ 18.641487035099495, 54.38991925 ] } },
{ "type": "Feature", "properties": { "ID": "110", "Name": "Essigfabrik", "Address": "Siegburgerstraße 110 50679 Cologne, German", "City": "Essig", "Country": "Germany", "Website": "www.essig-fabrik.de", "Type": "venue", "Type_Public": "venue", "Food": "no", "Description": "Chek their website for metal shows.", "Review": "", "field_12": "", "field_13": "", "field_14": "", "field_15": "", "field_16": "", "field_17": "", "osm_type": "node", "display_name": "Elektroküche, 110, Siegburger Straße, Deutz, Innenstadt, Cologne, North Rhine-Westphalia, 50679, Germany", "place_id": "14289754", "class": "amenity", "type_2": "bar", "road": "Siegburger Straße", "village": null, "city_district": "Innenstadt", "town": null, "city_2": "Cologne", "state": "North Rhine-Westphalia", "country_2": "Germany", "postcode": "50679" }, "geometry": { "type": "Point", "coordinates": [ 6.9780268, 50.9245801 ] } },
{ "type": "Feature", "properties": { "ID": "112", "Name": "Garage Saarbrücken", "Address": "Bleichstraße 11-19 66111 Saarbrücken, Germany", "City": "Saarbrücken", "Country": "Germany", "Website": "www.garage-sb.de", "Type": "venue", "Type_Public": "venue", "Food": "no", "Description": "Chek their website for metal shows.", "Review": "", "field_12": "", "field_13": "", "field_14": "", "field_15": "", "field_16": "", "field_17": "", "osm_type": "way", "display_name": "Bleichstraße, St. Johanner Markt, St. Johann, Bezirk Mitte, Saarbrücken, Regionalverband Saarbrücken, Saarland, 66111, Germany", "place_id": "104610711", "class": "highway", "type_2": "primary", "road": "Bleichstraße", "village": null, "city_district": null, "town": null, "city_2": "Saarbrücken", "state": "Saarland", "country_2": "Germany", "postcode": "66111" }, "geometry": { "type": "Point", "coordinates": [ 6.9995296, 49.2334341 ] } },
{ "type": "Feature", "properties": { "ID": "113", "Name": "Zeche", "Address": "Prinz-Regent-Straße 50-60 44795 Bochum, Germany", "City": "Bochum", "Country": "Germany", "Website": "www.zeche.com/", "Type": "venue", "Type_Public": "venue", "Food": "no", "Description": "Chek their website for metal shows.", "Review": "", "field_12": "", "field_13": "", "field_14": "", "field_15": "", "field_16": "", "field_17": "", "osm_type": "node", "display_name": "Prinzregenttheater, 50-60, Prinz-Regent-Straße, Weitmar, Bochum-Südwest, Bochum, North Rhine-Westphalia, 44795, Germany", "place_id": "3784057", "class": "amenity", "type_2": "theatre", "road": "Prinz-Regent-Straße", "village": null, "city_district": null, "town": null, "city_2": "Bochum", "state": "North Rhine-Westphalia", "country_2": "Germany", "postcode": "44795" }, "geometry": { "type": "Point", "coordinates": [ 7.2175475, 51.4509115 ] } },
{ "type": "Feature", "properties": { "ID": "114", "Name": "Hellraiser", "Address": "Werkstättenstraße 4 04319 Leipzig", "City": "Leipzig", "Country": "Germany", "Website": "www.hellraiser-leipzig.de/", "Type": "venue", "Type_Public": "venue", "Food": "no", "Description": "Venue that appears to do mostly metal shows, or at least dark music.", "Review": "", "field_12": "", "field_13": "", "field_14": "", "field_15": "", "field_16": "", "field_17": "", "osm_type": "node", "display_name": "RailMaint, 4, Werkstättenstraße, Paunsdorf, Ost, Leipzig, Saxony, 04319, Germany", "place_id": "99481651", "class": "landuse", "type_2": "railway", "road": "Werkstättenstraße", "village": null, "city_district": "Ost", "town": null, "city_2": "Leipzig", "state": "Saxony", "country_2": "Germany", "postcode": "04319" }, "geometry": { "type": "Point", "coordinates": [ 12.4636284, 51.3406376 ] } },
{ "type": "Feature", "properties": { "ID": "115", "Name": "Bierhübeli", "Address": "Neubrückstr. 43 3012 Bern, Switzerland", "City": "Bern", "Country": "Switzerland", "Website": "https://bierhuebeli.ch/", "Type": "venue", "Type_Public": "venue", "Food": "no", "Description": "Chek their website for metal shows.", "Review": "", "field_12": "", "field_13": "", "field_14": "", "field_15": "", "field_16": "", "field_17": "", "osm_type": "node", "display_name": "43, Neubrückstrasse, Länggasse, Stadtteil II, Bern, Bern-Mittelland administrative district, Bernese Mittelland administrative region, Bern, 3012, Switzerland", "place_id": "79124041", "class": "place", "type_2": "house", "road": "Neubrückstrasse", "village": null, "city_district": "Stadtteil II", "town": null, "city_2": "Bern", "state": "Bern", "country_2": "Switzerland", "postcode": "3012" }, "geometry": { "type": "Point", "coordinates": [ 7.4378751, 46.956373 ] } },
{ "type": "Feature", "properties": { "ID": "116", "Name": "Backstage", "Address": "Reitknechtstraße 6 80639 Munich, Germany", "City": "München", "Country": "Germany", "Website": "https://backstage.eu/", "Type": "venue", "Type_Public": "venue", "Food": "no", "Description": "Chek their website for metal shows.", "Review": "", "field_12": "", "field_13": "", "field_14": "", "field_15": "", "field_16": "", "field_17": "", "osm_type": "node", "display_name": "6, Reitknechtstraße, Siedlung Neuhausen, Neuhausen, Neuhausen-Nymphenburg, Munich, Bavaria, 80639, Germany", "place_id": "49300718", "class": "amenity", "type_2": "bar", "road": "Reitknechtstraße", "village": null, "city_district": null, "town": null, "city_2": "Munich", "state": "Bavaria", "country_2": "Germany", "postcode": "80639" }, "geometry": { "type": "Point", "coordinates": [ 11.5217226, 48.1445569 ] } },
{ "type": "Feature", "properties": { "ID": "117", "Name": "Neue Stadthalle", "Address": "Südliche Ringstraße 77 63225 Langen, Germany", "City": "Langen", "Country": "Germany", "Website": "https://www.neue-stadthalle-langen.de/", "Type": "venue", "Type_Public": "venue", "Food": "no", "Description": "Chek their website for metal shows.", "Review": "", "field_12": "", "field_13": "", "field_14": "", "field_15": "", "field_16": "", "field_17": "", "osm_type": "node", "display_name": "Stadtbücherei Langen, 77, Südliche Ringstraße, Nordend, Langen, Landkreis Offenbach, Hesse, 63225, Germany", "place_id": "9627922", "class": "amenity", "type_2": "library", "road": "Südliche Ringstraße", "village": null, "city_district": null, "town": "Langen", "city_2": null, "state": "Hesse", "country_2": "Germany", "postcode": "63225" }, "geometry": { "type": "Point", "coordinates": [ 8.6667515, 49.9862423 ] } },
{ "type": "Feature", "properties": { "ID": "118", "Name": "Huxley's Neue Welt", "Address": "Hasenheide 107-108 10967 Berlin", "City": "Berlin", "Country": "Germany", "Website": "www.huxleysneuewelt.com/", "Type": "venue", "Type_Public": "venue", "Food": "no", "Description": "Chek their website for metal shows.", "Review": "", "field_12": "", "field_13": "", "field_14": "", "field_15": "", "field_16": "", "field_17": "", "osm_type": "node", "display_name": "EDEKA, 107-108, Hasenheide, Neukölln, Friedrichshain-Kreuzberg, Berlin, 10967, Germany", "place_id": "7178171", "class": "shop", "type_2": "supermarket", "road": "Hasenheide", "village": null, "city_district": null, "town": null, "city_2": "Berlin", "state": null, "country_2": "Germany", "postcode": "10967" }, "geometry": { "type": "Point", "coordinates": [ 13.4214953, 52.4864287 ] } }
]
}
